stop_id,stop_name,stop_lat,stop_lon
3971,MULUND-W CHECK NAKA BUS STN.,19.1835445097,72.9534138696
3029,RAM GANESH GADKARI CHK.,19.025273336,72.8404460379
2425,JIJAMATA BHOSLE MARG JN.,19.069988548,72.9083503381
1634,VIDYA VIHAR S.T.WORKSHOP,19.0811500146,72.89151781
4661,HIGHWAY APT.,19.0483422838,72.8682287285
5071,PRABHDEVI TEMPLE,19.0160673867,72.8313423341
4915,L.T.HOSPITAL/DHARAVI POLICE STN.,19.036323346,72.8570046313
4829,MADANPURA,18.9695712856,72.8289791674
4775,BORIVLI STN.(W) BUS STN.,19.2342436419,72.8551064019
4732,U.T.C.FIRE SECURITY,19.1101241934,73.0313123715
2994,MAHATMA PHULE MARKET,18.9460691078,72.8351066353
654,PUSHPA PARK,19.1915453675,72.8584036924
292,MEHRABAD BAUG,19.1432707569,72.8377692593
5096,BHAKTI PARK,19.0284535647,72.8774320095
3075,REAY RD.BRIDGE,18.9770909576,72.8439676719
1229,KANDIVLI STN.(W),19.2058021041,72.8516543116
2089,ADARSH NGR.,19.1880141255,72.863698373
809,KUMBHARWADA,19.0540868043,72.8922723004
2279,FOUR BUNGALOWS MARKET,19.1267316344,72.8218474505
4026,KHARGHAR RLY.STN.SUB-WAY,19.0271204242,73.0571277319
1947,PANDURANG WADI,19.1722244422,72.851792696
3077,SHANTARAM PUJARE CHK.,18.9883316711,72.8358189084
3087,DAINIK SHIVNER,18.9958655,72.8226988
216,MATUNGA POLICE STN.,19.0306969734,72.8578706005
2892,BAHALEPADA,19.1637391943,72.8846452806
4475,REAY RD.RLY.STN.,18.9759562412,72.8436065446
833,MAHAPOUR NIWAS/SHIVAJI PARK,19.0258791287,72.8359009142
4370,MUMBAI CRICKET ASSO.COMPLEX,19.0658724968,72.8633149122
32,CITYLIGHT CINEMA,19.0302593381,72.8417167644
4419,GOKUL NGR.,19.1938223484,72.8703632839
1182,SHIPPING CORPORATION,19.1237059401,72.8976239154
3393,KALA NGR.,19.0555628221,72.8477240989
2455,MHADA COLONY (FOUR BUNGALOWS),19.147843,72.832048
3085,VASANTRAO NAIK CHK.,18.9685991752,72.8150332566
3763,KANE NGR.,19.0283704174,72.8664293162
3479,MAHARASHTRA KATA,19.1012597584,72.8879202863
1402,BANK OF INDIA,19.1273144174,72.8339957063
3799,DOCKYARD RLY.STN.,18.9661384521,72.8442769251
1312,MT.POINSUR CHURCH,19.2446844178,72.8520707771
1889,TERNA ENGG. COLLEGE(KOPAR-KHAIRANE),19.1109042925,73.002489695
5159,KHERWADI JUN.,19.0659068087,72.8465139882
1875,KANNAMWAR NGR.BLDG NO 150,19.1159455855,72.9407512776
4443,KHEWRA CIRCLE,19.2417828164,72.9690428495
2396,MULUND COURT,19.1760732309,72.9601168392
2057,ROYAL HOTEL ( SRUSHTI ),19.2715985829,72.8671660271
3086,VASANTRAO NAIK CHK.,18.9692891171,72.8161490555
1123,NARAYAN DABHOLKAR MARG,18.9525197273,72.7952340635
370,CHANDIVLI JN.,19.1103436169,72.8880952221
4754,SESSION COURT,19.1757401245,72.8668675157
4254,GANESH NGR./GOKUL ANAND HOTEL,19.244202755,72.8644186968
1625,NEHRU LIBRARY (VIDYANGRY),19.0743100856,72.8604836751
1898,RABALE POLICE STN.,19.1479938581,73.0006636636
687,SANDHURST RD.STN.,18.9609586465,72.838853506
3246,NAVRANG TALKIES,19.1239085091,72.8424071138
3898,PRINCESS STREET,18.9454446395,72.8271953675
4101,GOKHALE VIDYALAYA(KHARGHAR),19.0407427614,73.0659157616
3010,GHATKOPAR STN.(W),19.0862059035,72.9085646751
2031,PRATAP NGR.,19.1392495682,72.9232208901
646,VIRWANI EST./SARVODAYA NGR.,19.1703670263,72.8588598024
3040,WADALA STN.(W),19.0169915161,72.8587051194
2445,GOREGAON CHECK NAKA NO.2,19.1264025011,72.8795981704
420,SARVODAYA PARSHWANATH NGR.,19.1604225521,72.9461581476
621,MUKESH CHK.(UMAR PARK/TATA GARDEN),18.9652945691,72.8039566072
876,GOL MANDIR,18.9580754629,72.8284204413
3726,JARIMARI MATA MANDIR/S.T.OFFICE,18.9917588051,72.8141154633
3445,SUKH SAGAR,18.9561533962,72.8136228082
152,JAIN SCTY.,19.0388187232,72.8614136529
1198,DURGA NGR.,19.1369811428,72.8730424858
1557,IRANI WADI,19.2008538493,72.8412711746
4902,VEER HANUMAN NAGAR,19.2547232579,72.8545366754
961,ORIENTAL BANK/ S.SAMARTH NGR MARKET,19.141007274,72.8276722485
4920,HINDUSTAN MILL,18.9794181871,72.8268832872
780,PHOENIX MILL,18.994809588,72.8255180083
2716,DOCKYARD RD.RLY.STN.,18.965692011,72.8441374502
4116,NERUL VILLAGE,19.036739893,73.0151413299
4387,KOPARI TEL.EXCHANGE,19.1810359581,72.9730315496
849,SHARDA CINEMA,19.0141741156,72.8460688808
4427,SANTACRUZ STN.RD.,19.0826113969,72.8382289161
2653,RAJHANS SCTY.,19.2391167447,72.8582077283
3900,DURGA NGR.(KANDIVLI-E),19.1938809105,72.8682688572
2989,AMARNATH PATIL SPORT COMP/ BANGANGA,19.0499543199,72.9144219946
1915,KHOT RD.,19.1472023193,72.9353815786
3930,SIDDHIVINAYAK TOWER,19.2090009867,72.9736441162
2618,POLICE STN./CHHOTA KASHMIR,19.1609830512,72.8728749314
1334,ANAND HOSPITAL,19.2579836555,72.8629669827
2051,AKSHAY,19.0467094,72.8592389
3416,BEST OFFICER QUARTERS,19.2226079486,72.8377265003
2872,BHAVISHYA NIDHI BHAVAN,19.2153306937,72.8316611256
612,JUHU PRABHAT,19.1192328816,72.8280810818
2087,KRISHNA BUILDING,19.1872888169,72.8387050438
4590,RAMADA HOTEL (POWAI),19.1367514204,72.8984178493
3203,NOVELTY SILK MILL,19.2544791629,72.8645763081
4494,MORVAGAON,19.2919880635,72.8140529649
829,S BRIDGE/MANDLIK CHK.,18.9796906391,72.8320003032
5136,AAREY ROAD SUBWAY,19.0759837,72.8776559
4519,V.J.T.I.COLLEGE,19.0243785722,72.8571557607
4486,MUMBRA POLICE STN.,19.1841455963,73.0223571461
4359,MASRANI EST.,19.0761349248,72.882391495
467,BALKANJI BARI SCHOOL,19.0849616749,72.8319407149
4877,KURAR VILLAGE,19.1893640146,72.8665438183
4603,VOLTAS,19.2179565428,72.9705878019
2517,MOVIE TIME CINEMA,19.1890975192,72.8343855665
921,HILL RD.GARDEN/MEHBOOB STUDIO,19.0523885175,72.8240662729
4271,GOREGAON CHECK NAKA NO 1,19.1663164481,72.8588859819
351,PUNJAB WADI,19.0453762076,72.9156787573
4033,KAMOTHE VILLAGE/MANSAROVAR,19.0272272335,73.0938547112
3368,Y.B.CHAVAN PRATISHTHAN/MANTRALAYA,18.9261909775,72.8263645681
4135,SEAWOOD DARAVE RLY.PHATAK,19.0233518185,73.0153559066
3388,ARIHANT INDL.EST.,19.1516844099,72.8468295444
4000,"""V"" MALL",19.212502,72.867559
1599,KAJUPADA,19.2340726303,72.8701089192
116,ERLA,19.1083600265,72.8405817709
1683,PETROL PUMP,19.1149077565,72.8939425087
1686,SAHAR CARGO COMPLEX,19.0966700885,72.865493801
1830,AMAR TALKIES,19.0522889473,72.9106147696
3302,MAHARSHI ARVIND CHK.,19.175901583,72.9510909499
145,VIJAY VALLABH CHK.,18.9552794954,72.8321059617
638,SHANKARWADI,19.1258272372,72.855927782
3728,AIROLI OCTROI NAKA,19.1537100444,72.9638208406
3591,R.R.KAMBLE MARG JN.,19.0795952571,72.8529774465
77,BYCULLA STN.(W),18.9742858639,72.8320587558
1023,GODREJ CO.,19.105174925,72.9219140002
3505,VASHI BUS STN.,19.0743765206,72.998486035
2864,NANA-NANI PARK,19.1279433144,72.8181961795
244,KAMANI,19.0847095843,72.8853232154
4076,RANI LAXMIBAI CHK.,19.0425509169,72.8637739969
4648,KURLA S.T.DEPOT,19.0567757733,72.8842224805
3879,SAWARPADA POST OFFICE,19.2385094925,72.8644977379
3224,MALAD STN RD.(W),19.1860928652,72.8466728972
1818,VRUDHI-SIDDHI SOC.(MULUND-E),19.1695280445,72.9551785392
1902,AIROLI SEWERAGE PLANT/ PREMDAN,19.1552927008,72.9931606305
5075,PRABHADEVI,19.0151341974,72.8322435564
5146,C.B.D.BELAPUR BUS STN.,19.0148487059,73.0287637828
624,VISHAL HALL/PRAKASH STUDIO,19.118799681,72.8513611743
2128,KUNCHI KURVE NGR.,19.0788578104,72.8697578237
2890,KANDIVLI STN.(W),19.206278829,72.8510869336
2501,PRABHADEVI,19.0140761008,72.8300335524
2061,BHAYANDER STN.(E),19.3122005638,72.853884617
1350,MOUNT MARY STEPS( MUNICIPAL GARDEN),19.0482204666,72.825014702
342,GAUTAM NGR./DEONAR ABATTOIR,19.0549928195,72.911289063
1494,MADH JETTY,19.1445021324,72.8015259551
2525,A.H.ANSARI CHK.,18.9740612411,72.8334064195
4213,MANEKJI COOPER SCHOOL,19.0879011222,72.8272427576
2369,MACCHIMAR NGR/RAHEJA HOSPITAL,19.0455956719,72.8417785575
1429,ADARSH DAIRY,19.1931857531,72.8412226485
4664,BAJAJ BHAVAN,18.9255867345,72.8214000989
5061,DIAMOND MARKET,19.0681439065,72.866662309
5048,SAIBABA PARK (EVERSHINE NGR),19.1922994309,72.8306948469
1912,TULSHETPADA,19.1605963302,72.9301039339
3398,ZAKERIA MASJID,18.95255881,72.8335730571
2323,AMBAWADI,19.2397923076,72.8597039283
1116,THAKURDWAR,18.9519092404,72.8229234435
1569,DATTA MANDIR(DAHANUKAR WADI),19.2090906186,72.8371328165
4473,PRAVASI INDL.EST.,19.1733182405,72.8562147908
4591,TAPESHWAR MANDIR,19.1346036527,72.884537485
461,RAMKRISHNA MISSION,19.0751669925,72.8341937705
2454,MHADESHWAR MANDIR,19.1382486998,72.8222235855
3452,RLY.ACCIDENT COURT,18.947584623,72.8401482063
1160,PARSI CLY.,19.0177653177,72.8496455754
125,OSHIWARA BRIDGE,19.1502252059,72.8431820544
2129,ST.PIUS SCHOOL,19.0792025529,72.8686849401
4714,ELPHINSTONE STN.(W),19.0073128397,72.8351022902
1428,JANKALYAN NGR.,19.2011294248,72.8213528441
4095,MIRA RD.MARKET,19.278890323,72.8577421748
443,BABULNATH RD.JUN.,18.9591657008,72.8096414574
3896,PT.PALUSKAR CHK.,18.9568364983,72.815508537
855,WILSON COLLEGE,18.9568450738,72.8102234885
3576,MODEL TOWN,19.1342705252,72.8684071186
4066,BHAYANDER POLICE STN.,19.2949790264,72.8479980605
1412,EKSAR KOLIWADA,19.2382101387,72.845298137
3151,SAKHAR BHAVAN,18.9258284536,72.8229945742
3907,MAGATHANE DEPOT,19.2214799095,72.8656431416
4576,D.A.V.SCHOOL,19.1801185091,72.9493772058
1128,MAHALAXMI RACE COURSE/ZENITH HOUSE,18.9805141104,72.8221578043
818,VASUDEO B.PHADKE CHK.,18.9442419624,72.8295273086
3775,SURYA NGR.,19.1198794382,72.9236208203
3803,RELIENCE ENERGY OFFICE,19.0675711162,72.8985071463
354,ANUSHAKTI NGR.,19.0427942436,72.9265934122
1237,RAM MANDIR,19.2369185964,72.8551070946
1238,BHAGWATI HOSPITAL,19.2405819982,72.854559867
176,BASANT PARK,19.0503103152,72.8936021836
4543,HEMGIRI SCTY./ GANESH MANDIR,19.2376258248,72.8642400104
3369,VIDHAN BHAVAN,18.9254095176,72.8241168769
208,SAHAKAR NGR.,19.0119676036,72.8515555575
4853,HARI BHAKTI DOVEL CO.,19.2854616066,72.8922014032
5095,SHYAM NAGAR,19.1347254215,72.8566914597
4716,ANAND NAGAR (APPAPADA MALAD-E),18.9911659514,72.84762297
4546,KRISHNANGR.,19.0997392398,72.8880055629
974,KANDIVLI INDU EST./ GANESH NGR.,19.2047699664,72.828314069
4039,KALAMBOLI BUS STN,19.0372884404,73.104669378
4378,CRISIL HOUSE,19.1169887978,72.9103509741
1097,KHAR DANDA,19.0748398615,72.8229383251
1322,YADAV NGR.,19.2070417985,72.8328473691
900,BANDRA BUS STN(W),19.0541622958,72.8392646526
3082,MAHARANA PRATAP CHK./POST OFFICE,18.9694222316,72.8407526742
1421,MILLAT NGR.,19.1496230697,72.8285650199
1905,VASHI SEC NO.9/16 JUHU NGR.MARKET,19.0791910482,72.9981981605
229,NADKARNI PARK POLICE STN.,19.0152157759,72.863476349
203,MAHATMA GANDHI HOSPITAL,18.9974111184,72.8404253165
1764,CHILDRENS HOME,19.042871233,72.9285197889
4345,LOKMAT OFFICE(MAHAPE),19.1129626918,73.0105341928
4922,JIJAMATA MUNICIPAL SCHOOL,18.9796927416,72.8391745193
1895,TALAVALI NAKA / NOCIL CO.,19.1306413849,73.0035389917
2132,PARSIWADA,18.9930153232,72.843661092
1603,POLICE STN- THAKUR COMPLEX,19.2063005514,72.86600583
3514,ASHOK NGR.,19.2329448057,72.8376767401
1028,MANKHURD OCTROI NAKA,19.0583873045,72.956328932
1272,UNIT NO 6/AAREY MARKET,19.1587863925,72.8743769684
2066,NAVGHAR NAKA,19.3085048494,72.8616308367
2491,BORIVLI STN-W (DIAMOND CINEMA),19.2286193868,72.8549115655
1459,HARI NIKETAN SCTY.,19.1634542876,72.8324594618
3850,BANK OF INDIA \ BHARAT NGR.,19.0611365145,72.8632483894
4720,MAHAPALIKA PUMPING CENTRE (MALVANI),19.1842115618,72.8245667013
1763,MUMBAI CENTRAL STN.(ON BRIDGE),18.9690245698,72.8180625062
1622,JUNGAL MANGAL RD.,19.1497563967,72.9326992301
4882,MUKUND CO.,19.084834,72.888042
1147,GRANT RD STN.(W),18.9639403683,72.8158832042
4041,C.B.D.BELAPUR/KONKAN BHAVAN,19.0239378042,73.0402017144
2945,NAGRI NIWARA ZONE-2,19.172823,72.879966
4730,NELCO (MAHAPE),19.0998240899,73.0261625302
4667,N.C.P.A./BAJAJ BHAVAN,18.9274287391,72.8216951419
4100,NAVRANG HOTEL,19.0388766546,73.0668598992
2102,KOKANI PADA,19.2448585082,72.8700607762
2049,ANKUR EST.AGENCY,19.278890323,72.8581108895
3504,VASHI BUS STN.,19.0741128864,72.9977135588
1369,VAZIRA NAKA,19.2287794192,72.8455236113
3717,GEETA NGR.,18.9120622,72.8063632
4188,JOHAR CHK.,18.9549250857,72.8321763991
3428,SANJAY NGR.,19.1389736087,72.8545454624
249,GHATKOPAR POLICE STN.,19.0869996261,72.8992641612
4245,DR.K.B.HEDGEWAR CHK,19.1637683861,72.9383861798
4710,WADALA ROAD/ REFINERIES,19.0208164636,72.8902777108
3386,S.R.A.CLY.(RAM MANDIR),19.1510357666,72.8480955471
4161,CHOGLE NGR.,19.2397530564,72.8699477512
998,DAULAT NGR.,19.2364895964,72.8593846298
1468,SANJAY NGR.,19.1369642508,72.8546417669
3094,SHANTARAM PUJARE CHK.,18.989325128,72.8358304457
1700,JUNGLESHWAR MAHADEO MANDIR,19.1037360875,72.8964959717
2002,KURAR POLICE CHOWKY,19.1654147,72.8491011
950,DHARAVI PILA BUNGALOW,19.0484831862,72.8550939035
2739,KRISHNA BAUG/FINE ARTS AUDITORIUM,19.0621476267,72.8979308383
3281,WORLI SEA FACE (N),19.0124373942,72.8169390517
1939,GANESH PADA,19.12065778,72.8853074839
2158,KAMAL VIHAR SPORTS COMPLEX,19.2129335116,72.842842475
5003,HINDUSTAN NAKA/C.CHARANSINGH CHK.,19.2076048671,72.8294033171
952,NATURE PARK/P.M.G.P.CLY.,19.0516280978,72.8627873847
173,LOKSHAHIR SATHE UDN./SUMAN NGR.,19.0536293719,72.8858287112
587,SAHAR POLICE STN.,19.1032193692,72.8735940723
437,KEVA FRAGNANS,19.1845661168,72.948183338
4065,MANDLI TALAO,19.2995421697,72.849383022
1906,GARODIA PALACE,19.0749664037,72.9034172857
3475,SHANTARAM PJJARE CHK.,18.9883250885,72.8361549359
746,BABULNATH,18.9563884608,72.8081850096
4313,AMRUT NGR.,19.1013121185,72.9115991933
4537,P.THAKRE NGR BUS.STN.,19.2213456736,72.8288347397
4047,KHOPAT S.T.TERMINUS,19.201575414,72.9743598724
1900,AIROLI SECT.NO 16,19.1516846692,72.992731477
3069,CHAKALA,19.1144179071,72.8593073443
807,DR.BHADKAMKAR RD.,18.9617820011,72.8173645403
5010,SHRIMAD GOKUL,19.2351358976,72.8519356457
1180,I.I.T.MAIN GATE,19.1250439855,72.9165066669
538,VIVEK VIDYALAYA,19.158541,72.84359
4705,KASHIMIRA TEL.EXCH.,19.2714337202,72.876121614
1448,RAMESH NGR.,19.1328462001,72.8418557452
3756,CIPLA CO./MILITARY CANTEEN,19.1183356247,72.9259394066
3211,BORIVLI STN-W (JAYA TALKIES),19.2292677245,72.8561346528
3114,POST & TELEGRAPHS,19.169741749,72.9451029084
3037,DNYANESHWAR NGR.,19.0054430138,72.8540987689
4250,GANDHI NGR.,19.1254869612,72.9240081524
708,BEST POWER HOUSE(KUSSARA),18.96953621,72.8455445288
191,DHANMILL NAKA,19.008643525,72.8308201312
3451,CHAR NAL,18.9576055198,72.8334023602
2628,VASUDEO B.PHADKE CHK.,18.9435534944,72.8288436982
2285,PRIYADARSHINI,19.0525373,72.8801425
983,REKHA SADAN/JAIN MANDIR,18.9498130064,72.7993250533
3387,MOVIE STAR TALKIES,19.1519681905,72.8454669823
631,BORIVLI STN(E),19.2311550264,72.8582989145
1222,SIDDHARTH NGR.,19.1591233549,72.8436825079
543,SEWREE NAKA,18.9985029257,72.8503917026
1801,UMARSHI BAPPA CHK.,19.0540709722,72.8893438052
3599,BHAYANDER STN.(E),19.3110665452,72.8531550562
4785,MATOSHRI SANKALP,19.076991,72.885948
5041,M.M.R.D.A.COLONY(MAHUL),19.0185504073,72.8902954632
501,NANA CHK.,18.9623112126,72.8133661727
594,PETIT HALL,18.9568624256,72.7997048768
2929,NAGRI NIWARA BLDG.NO.16-C,19.173834,72.881287
551,ARYA SAMAJ MANDIR,19.0797906414,72.8344727202
1785,SAHAKAR TALKIES,19.0684634503,72.8995371145
3018,MULUND RLY.STN.(W),19.1726182825,72.9564553679
512,FOUR BUNGALOWS,19.1292042338,72.8261876711
1752,SEEPZ VILLAGE,19.1302905189,72.8768933907
4305,ASHOK NGR./ VILO'S SCTY.,19.2154220751,72.9917512152
3546,MAHARANA PRATAP CHK.(MULUND),19.1841023354,72.9535139303
3515,M.H.B.POLICE STN.,19.2327774014,72.8408325535
4302,KAPUR BAWDI,19.2187666814,72.9779529099
2839,MULUND RLY.STN.(W),19.1732966198,72.9566406963
4017,KALYAN NGR.,19.1180866813,72.8866251923
3959,BRAHMAND-AZAD NGR.,19.2421216742,72.9757710433
977,BANK OF MAHARASTHRA,19.212776674,72.8283069909
3814,NAVJEEVAN SCTY.,18.9660069845,72.8189834777
868,TEEN BAKDA,18.9547124111,72.8075574464
958,KALAKILLA,19.0481800669,72.8577233741
932,SHAHU NGR.,19.0413739506,72.8500920961
4223,AMIRA APTS.,19.1812533835,72.8158636867
4214,NARAYAN PUJARI NGR.,19.0048806503,72.8135159312
1328,DENA BANK,19.2045683053,72.8481466446
661,OMKARESHWAR MANDIR,19.2313748766,72.8623782475
2837,SHREEJI AVENUE SCTY.(GAWANPADA),19.1731521192,72.9617183495
3268,SEWREE COURT,18.993175108,72.8511449813
202,G.T.HOSPITAL,18.9459250089,72.8317323185
4335,BANDRA TALAO,19.0560494199,72.8370309984
1747,HINDUSTAN PETROLIUM CLY.,19.1717981255,72.8716311189
5029,MHADA COLONY(DAHISAR),19.2508057188,72.8653957725
3249,MAHESHWARI UDN.,19.0284162371,72.8569394847
5202,ANTOP HILL POST OFFICE,19.0246215402,72.863857291
531,LAXMI INDL.EST.,19.1350886137,72.8319553321
1857,MAHARSHI ARVIND CHK.,19.1768352926,72.9511152772
3362,AVDHUT NGR.,19.2581457112,72.861572234
4636,SAMBHAJI NGR.,19.2024648866,72.8622524906
3019,P.MOHD.RAFI CHK.,19.0548527903,72.8375888978
5081,NEW ERA TALKIES,19.1866488175,72.8457734785
1146,GARLIC CO.,18.9784523131,72.8288028457
2092,APPAPADA,19.1901746297,72.867874194
494,MULUND-W CHECK NAKA BUS STN.,19.1828554594,72.9539288537
3271,MILLENNIUM BUSINESS PARK,19.0969042588,73.0264128701
3411,L.I.C.OFFICE,19.2441171758,72.8512768432
1191,SHER- E- PUNJAB CLY.,19.1257332774,72.861918349
5076,WADALA TRUCK TERMINAL,19.0362112582,72.8774474079
4766,CHUIM VILLAGE,19.0737503347,72.8262978472
3340,ST.XAVIERS TECH.INSTITUTE,19.0459740717,72.8436541098
2727,JAMBHULPADA/SHIVASENA OFFICE,19.0934658729,72.8997680128
4674,S.G.BARVE MARG JUN.,19.0585735208,72.8860393237
2226,SWAMI NARAYAN MANDIR,19.0806277027,72.9152254028
4991,BHABREKAR NAGAR EXTN.,19.2010437668,72.824607623
4068,JAIN MANDIR,19.3028836872,72.8496727006
4348,MAHAPE CIRCLE,19.113246539,73.0215634362
860,SHUKLAJI STREET,18.9663022862,72.8245885455
904,TODDY CO / EMPIRE DYEING,19.001065166,72.8289570477
2526,HIRANANDANI,19.1195861923,72.904359211
4723,RUTU PARK,19.20894892,72.9786066107
963,SHREE SWAMI SAMARTH NGR.EXT.,19.1416085187,72.8284566296
4694,VARTAK NGR.,19.2093534287,72.962486884
632,DOMESTIC AIRPORT JUN.,19.0951410415,72.8523469611
2650,DHARAMSHI HALL,19.2250918936,72.8545376807
5152,MUMBAI CENTRAL STN(W),18.9694344818,72.8183549794
2395,DHANVANTARI HOSPITAL,19.1760798914,72.9536460297
1212,VESAVA-YARI RD.BUS STN.,19.1394376925,72.8080467006
919,SIR ALIYAWAR JUNG INSTITUTE,19.0520538604,72.8341985857
2568,MAHUL MARKET,19.0157042908,72.8906210335
2328,CITY BANK,19.069328532,72.868819965
53,SWAMI D.SARASWATI CHK.,18.9345004013,72.8371137225
712,WORLI VILLAGE,19.0160595,72.8179172298
3292,"MHADA CLY.,MALVANI",19.1858157,72.819052
5207,MIRA ROAD POLICE STN.,19.243563,72.8497188
1355,ST.THERESA CHURCH,19.0622558898,72.833145908
5005,HINDUSTAN NAKA/C.CHARANSINGH CHK.,19.2071491213,72.8309326005
3745,SHOPPING PLAZA,19.1113323487,72.9028267615
3255,WADALA STN.(W),19.017400161,72.8591942395
2247,SHREE SWAMI SAMRTH NGR.MARKET,19.1370906919,72.8257432645
444,NALANDA,18.9613420664,72.8088333723
819,CHH. SHIVAJI TERMINUS(GPO),18.9384599027,72.8370017985
1388,RAJENDRA NGR.,19.2216434129,72.8595531113
4781,SHOPPING PLAZA,19.1069849259,72.9007442281
716,DAINIK SHIVNER,18.9958655,72.8226988
4156,JAIN MANDIR (SAMATA NGR.),19.2141056052,72.8722920103
358,SANT MUKTABAI HOSPITAL,19.0864145469,72.8976494035
4420,MUKTAI NGR.,19.211590464,72.9774021221
1113,MARINE DRIVE,18.9412611736,72.8240103237
3595,ABHINAV SCHOOL,19.3025502883,72.8577946592
707,FIRE BRIGADE,18.9503853109,72.8409206825
161,SHIVSHRUSTI,19.0545094486,72.8817515577
317,BEST RECIEVING CENTRE,19.0414764839,72.8703512141
1085,MUN.WARD OFFICE/AMBEDKAR UDN.,19.060247195,72.8994601858
3906,SANTOSHI MATA MANDIR,19.243014758,72.8662892181
1189,PUMP HOUSE,19.1260171026,72.8570689151
4565,AZAD COMPOUND,19.2036417723,72.8297738067
4558,GADI ADDA,18.9946234279,72.8538847696
820,CHH. SHIVAJI TERMINUS,18.9391804134,72.8354246596
1536,S.K.PATIL AROGYADHAM(MALAD-E),19.1911197986,72.853919039
2050,PREM SAGAR,19.2765407977,72.8592696038
2327,ICICI BANK,19.0650088017,72.8618247639
5045,DR.AMBEDKAR UDYAN (POWAI),19.1223460617,72.8920434338
2708,CORPORATION BANK,19.2597504062,72.8632046861
3923,MULLA BAUG,19.2382724333,72.9758139587
3179,DATTANI PARK(INSIDE),19.2136800947,72.8725924177
3956,ANAND NGR.TOLL NAKA,19.181548372,72.9659595632
4054,WAGLE CIRCLE,19.1945797604,72.9495551364
2706,ASHIRVAD HOSPITAL,19.2566466903,72.8648981732
2711,DARPAN CINEMA/ SAI SERVICE,19.1155532829,72.855069454
1721,CENTRAL DAIRY,19.1512606002,72.8758511244
175,BHAKTI BHAVAN,19.0524751367,72.8912170111
4660,DHARAVI DEPOT/KOLIWADA,19.0508789358,72.857976457
4989,PADMAJA SOCIETY,19.2022596017,72.8280837659
1697,ST.ANTHONY CHURCH,19.1061489075,72.8893291092
445,CUMBALA HILL POST OFFICE,18.9631006901,72.8077476274
3903,MAHAVIR NGR.,19.2114354548,72.8383426611
4462,BALKUM PADA NO.1,19.2111872169,72.9939756655
3156,UTPAL SANGHAVI SCHOOL,19.114422472,72.8277312772
3760,SIMLA HOUSE,18.9582325059,72.8022775444
108,BANDRA TALKIES/SHROFF EYE HOSPITAL,19.060668892,72.8370565687
222,C.G.S.DISPENSARY,19.0309099645,72.8631277301
3339,R.C.F.,19.0339760148,72.8897422024
3648,GOKULDHAM,19.1730749787,72.8686485025
1170,MAROL LIONS CLUB,19.1097166351,72.8757800052
3800,SARVODAY MAHABUDDHA VIHAR,19.0676725181,72.8927994055
3413,SHIMPOLI TEL.EXCHANGE,19.2245192459,72.8409844904
3175,SUDHINDRA NGR.,19.2585349968,72.861573903
3702,DOORDARSHAN CLY.,19.1681296509,72.8703865739
1803,SANDESH HOTEL,19.0305421545,72.8463211726
439,MARINE LINES RLY. STN.,18.9474403665,72.8227821057
3115,VASUDEO B.PHADKE CHK.,18.9428598221,72.8293418466
969,SHASTRI NGR.,19.1591845247,72.8352372903
4125,SHANTARAM PATIL CHK.,19.0734906916,73.0025242187
1251,MINATAI THAKRE MAIDAN (ANACIN COMP),19.0968490842,72.9155387954
5129,PANDURANG WADI,19.172292809,72.8498842727
2488,BHANDUP VILLAGE JN.,19.1561829431,72.9498948114
187,GAWANGAON/REFINERIES,19.0201808526,72.8980037923
1094,RIZVI COLLEGE,19.0672754409,72.82261646
2774,AGARWAL MUNICIPAL HOSPITAL,19.1785110772,72.9453634756
4692,E.S.I.S.HOSPITAL (THANE),19.2013507367,72.9590472706
186,BHARAT PETROLEUM,19.0090620622,72.8990328592
14,JOHAR CHK.,18.9584832148,72.8317793664
113,SANTACRUZ DEPOT,19.0901111788,72.8381355963
2353,PENKARPADA,19.2672409019,72.8763686175
1527,RATAN NGR.( BORIVLI - E ),19.2389933292,72.8620793678
841,BKC TEL.EXCHANGE,19.0709712168,72.8721029889
2333,S.U.PUPM(MULUND-W),19.1847890428,72.9434197348
1362,SHANTI ASHRAM,19.2406253855,72.8468431701
1487,PERU BAUG,19.1663606963,72.8521524584
4682,SEEPZ VILLAGE,19.1295984557,72.8763961163
673,CENTRAL RLY GOODS,18.9596800105,72.8431951957
3238,SEWREE RLY.PHATAK,18.9998782693,72.8554082643
1600,DHOBI GHAT(BORIVLI-E),19.2316819425,72.8671906758
3045,MAROLNAKA/MATA RAMABAI AMBEDKAR CHK,19.1089039349,72.8786822044
4322,GANDHI BALMANDIR VIDYALAYA,19.0816261324,72.8873351129
1911,MILIND NGR.,19.1575356878,72.9294387461
4885,BABU GENU MARKET,19.0965589631,72.8983823911
4770,COOPERGE TEL.EXCH.,18.9236253945,72.8294453196
1565,SATYA NGR.,19.2153675228,72.8419251586
3198,PRAVASI INDL.EST.,19.1713023655,72.8542511247
305,RANI LAXMIBAI CHK/ROOPAM CINEMA,19.0416930156,72.8647949577
698,FAMOUS STUDIO,18.9858894489,72.8240643782
2976,HANUMAN NGR.,19.1749417128,72.8740881059
2205,MAHESHWARI NGR.,19.1179244877,72.8735038258
1047,NERUL NAKA,19.0464492393,73.0250506331
4471,MANTRALAYA,18.9292625297,72.824401497
3314,CHAKALA,19.1147598887,72.8600255734
3020,AHILYABAI HOLKAR CHK.,18.9319342454,72.8282323545
670,MAZGAON DOCK,18.9674273889,72.8463176687
4487,RETI BUNDER NO.2,19.1978854187,73.0232583684
1691,TELI GULLY,19.1158075889,72.8504878581
2852,SHIVAJI CHK.,19.1766645177,72.9383755426
3215,MUNICIPAL CLY.,19.1004785898,72.9184355811
5083,SARDAR CHK.,19.1864866913,72.8402803145
3091,SHREE RAM MILL,18.9984148812,72.8215101112
1663,PRABHADEVI/RAVINDRA NATYA MANDIR,19.0154597555,72.8296572859
1242,KANDER PADA(DAHISAR BRIDGE),19.254805,72.855131
4198,NOORBAUG,18.9625554992,72.8379055976
3911,KAJUPADA,19.2787457221,72.9222770668
591,PREM NGR.,18.9505224478,72.7935080729
555,FAROOKH VIDYALAYA,19.1306942462,72.8476042024
2313,VAIBHAV ASAVARI SOC.(WARE HOUSE),19.1041511473,72.8669431581
513,BALLARD PIER,18.9334492231,72.8420878033
568,MITH CHKY,19.1958041325,72.833029487
4381,NORTH BOMBAY SCHOOL,19.0869214978,72.8959757051
2078,DIAMOND PARK,19.0834223751,72.8522220241
3584,VAKOLA VILLAGE,19.0806015946,72.8563087501
1495,KHARODI VILLAGE,19.1961444104,72.8193787383
3743,MAHARASHTRA NGR.,19.0615641019,72.8539705536
1391,SANTACRUZ STN (W),19.0824086115,72.8409111251
1652,I.C.I.,18.9796289726,72.8494001161
3333,KURLA S.T.DEPOT,19.0568187347,72.8840327989
460,KHAR STN RD (W),19.0713022851,72.8373095075
782,BHARATMATA CINEMA,18.9953924587,72.8366343
3809,MUMBAI CENTRAL STN.,18.9688759396,72.8206560592
1367,M.H.B.CLY.,19.2316982923,72.8346151681
825,BEST CLY.,19.0126003637,72.8538188915
5155,MADINA MANZIL,19.1749311732,72.8491539011
3272,USHMA NGR.,19.1936369199,72.8303086088
2470,M.M.R.D.A./FAMILY COURT,19.0557227254,72.8507531385
2752,ADARSH HIGH SCHOOL,19.024060573,72.876565529
2556,BORIVLI RLY.COMPOUND RD(E),19.2302065902,72.8577503729
30,VEER KOTWAL UDN. (PLAZA),19.0216857288,72.842245956
3426,NIMKAR SCTY.,19.1787091332,72.9393213195
1593,BORIVLI MARKET(E)/CARTER RD.,19.2313785268,72.85948807
3972,"MAHARANA PRATAP CHK./""R"" MALL",19.0759837,72.8776559
1688,ST.JOSEPH TECH.SCHOOL,19.0806531854,72.8900372306
3441,N.S.C. COMPOUND,19.1519815241,72.856320421
3004,GREEN HILL GATE NO.4,19.1989490771,72.8803976346
4531,GHANSOLI RLY.STN.,19.1168554104,73.0077446954
1649,DEEPAK CINEMA,19.0062342426,72.830924483
272,REAY RD.STN.,18.9766438952,72.8440453723
1514,MADH TEMPLE,19.1473400402,72.7907112883
66,VILE PARLE SUB-WAY,19.0913002166,72.8445839533
4342,PAREL S.T.DEPOT/SANT ROHIDAS CHK,19.0092689331,72.8333520845
839,TATA CLY.,19.0596167898,72.8556240301
3448,UDAY SHREE MARG,19.1506087339,72.9486717241
935,KHAMBEKAR STREET,18.958173745,72.835376466
4909,BANDRA TALAO,19.0576897907,72.8393579034
4575,KAPADIYA MARG (BORIVALI-E),19.2309518745,72.8588839748
1330,DAHISAR CHECK NAKA,19.2555731327,72.8702746386
3485,MULUND STN.(E),19.1716523231,72.9577272225
5097,R.C.F.POLICE STN.,19.0352803129,72.8957064657
1280,GAGANDEEP,19.1147092334,72.8360846159
5099,ADARSH NAGAR,19.1459757496,72.8324772269
1918,JAGDUSHA NGR.,19.0909506338,72.9074149473
3718,HUTATMA CHK./MUMBAI UNIVERSITY,18.9325263512,72.8312497513
3774,VALLABH PARK,19.085740826,72.9095109344
4029,BHARATI VIDYAPITH (H'WAY),19.0249958349,73.0555742242
2607,GODREJ CO.,19.0971142007,72.927193727
2880,PATIDAR CLY.,19.2419207783,72.8649266559
4828,A.H.ANSARI CHK./SALVATION ARMY,18.9734673683,72.8300091356
3065,VAKOLA POLICE STN.,19.0803418143,72.8481097586
3520,BAINGANWADI,19.0572786842,72.9188112255
3315,CHAKALA,19.1143543963,72.8592745549
2884,DHANVANTARI HOSPITAL,19.1763271912,72.9532152594
1511,MASTER WADI,19.1571507168,72.7870205687
23,BHARATMATA CINEMA,18.9966634532,72.8366944146
547,PAREL S.T.DEPOT/SANT ROHIDAS CHK.,19.0093144166,72.8332590801
506,MITHIBAI COLLEGE,19.1035071371,72.8369375584
3765,NILKANTH VALLEY,19.0773105688,72.9006128854
630,E.S.I.S HOSP/ MIDC POLICE STN.,19.0759837,72.8776559
1629,NAVSENA GATE/KIROL VILLAGE(VIDYAVIH,19.0824372766,72.8953602823
241,ANJANABAI MAGAR/S.SAINIK SURVE CHK.,19.0759837,72.8776559
154,RANI LAXMIBAI CHK.,19.0439417564,72.8643607675
2665,MODERN USHA CLY.,19.1908403397,72.8340851591
2077,DATTA MANDIR(VAKOLA),19.0825706787,72.8536811458
4146,BANUBAI TANDEL MARKET,19.0162516443,73.017887912
762,GOODS SHED,18.9806865891,72.8464326547
3741,RAGHUVANSHI MILL,18.9913124326,72.8239430771
601,MAHALAXMI TEMPLE,18.9763767043,72.8085303946
4798,LOKMANYA TILK HOSPITAL/SHANMUKHANAN,19.036039367,72.8602232822
1617,MAHARASHTRA NGR.,19.1408574956,72.9281502036
941,PODDAR COLLEGE & RUIA COLLEGE,19.0233171103,72.8496117379
390,KANJUR VIILLAGE,19.1304193959,72.9351084819
5110,RAJASHRI CINEMA,19.254654782,72.8629638682
978,P.THAKRE NGR MARKET,19.2154988979,72.8284810846
5168,TATA ANNEX,18.9396311,72.8365272
3280,GARWARE CHK.,19.1036554825,72.8541949421
683,GAIWADI,18.9529355197,72.822009002
4132,NERUL SECT.-02,19.0439314029,73.0177661363
4365,OLD AGRA RD.,19.0748573223,72.8794517939
3816,NAGPADA POLICE HOSPITAL,18.9657907881,72.8318360596
2567,R.C.F.OFFICE,19.034810212,72.8913247057
2963,THAKUR VILLAGE,19.2105131034,72.8774297461
1223,DAHISAR BRIDGE,19.2545611988,72.8577124108
1841,INDL.EST.,19.0996187933,72.9145292829
2953,KRISHNA LEELA C.H.S.,19.1677511781,72.834143889
3301,EKTA SCTY.,19.1083693954,72.8757827548
1069,ST.ANDREW'S CHURCH,19.0547209577,72.8254502928
3183,NOVELTY SILK MILL,19.2543946219,72.8655942933
1638,MARVE RD NAKA/ SWAMI SHIVANAND CHK.,19.1914429576,72.8463939475
4745,SHERLI VILLAGE,19.0726898787,72.8218303385
5058,RAJ HILL,19.2241493367,72.8597319104
4593,DURGAMATA MANDIR,19.2042737253,72.8640519137
4490,BAINGANWADI,19.0594425715,72.9234136239
55,COM.GULABRAO GANACHARYA CHK.,18.990566315,72.8315282344
4155,SIDDHARTH NGR.,19.2156995067,72.8708824682
3117,VASUDEO B.PHADKE CHK.,18.9431810751,72.8285929021
4142,MAHISHASUR MARDINI MANDIR,19.2328435054,72.8392860655
755,ALEXANDRA CINEMA,18.9671402535,72.8281346112
2054,APNA BAZAR,19.2756900992,72.8669514504
1247,KURLA LEVEL CROSSING,19.0524797133,72.8668295061
3683,GATE WAY OF INDIA,18.9238946274,72.8335082332
4371,DENA BANK/NAMAN CHEMBER,19.0623642987,72.8649437935
68,SATHE COLLEGE,19.0983715005,72.8460121631
1732,UNIT NO 13 ( CENTRAL DAIRY ),19.1555508914,72.8657938996
48,UNIT TRUST OF INDIA,19.0497416652,72.8282118951
3437,GIRISHIKHAR,19.2359770516,72.8727052975
3062,VILE PARLE,19.1004352985,72.8395178434
924,BANK OF INDIA,19.0551855703,72.8306406996
238,RAJMATA A.H.UDYAN/KURLA LION'S PARK,19.06009,72.872501
4579,STANFORD SCTY.(THANE),19.2490918987,72.9788073213
3295,GURUDWAR,19.1813547156,72.8172155201
3080,ACHARYA ATRE CHK.,18.9977568658,72.8177415469
43,JIJAMATA UDN.,18.9784882913,72.8337727019
1409,BORIVLI BUS STN(W),19.2307595724,72.8566091317
1340,PRARTHANALAYA,19.0504616943,72.8215342676
4764,PETIT GIRL'S SCHOOL,19.0707489239,72.8284436145
4303,YASHASVI NGR./VARDHAMAN GARDEN,19.219150281,72.9845843527
4997,VAZIRA NAKA,19.2304366783,72.8455112911
4959,RAJKUMAR,19.126612,72.838333
322,GHATKOPAR SONAPUR,19.0725328495,72.902215656
4926,MITH CHOWKY,19.195562881,72.8312020572
4421,SARASWATI COMPLEX(DAHISAR),19.2613810664,72.8601416034
237,Y.B.CHAWAN PRATISHTHAN,18.9252220278,72.8269385873
4239,S.R.A.VASHI NAKA,19.0354132126,72.8953343861
1517,LIBERTY GARDEN,19.1886348502,72.8466317854
5065,VEER KOTWAL UDN.,19.0219838887,72.8423562078
3067,KURLA DEPOT,19.0760730694,72.8769595987
258,DHOBI GHAT/DR.AMBEDKAR NAGAR,18.911186631,72.8189337116
1162,VITTHAL MANDIR / WADALA MARKET,19.0178562959,72.8546949235
1262,BHANDUP PUMPING CENTRE,19.1547640714,72.9565466897
4151,THANE MUN.COMMISSIONER HOUSE,19.2480802944,72.97509649
3095,J.V.P.D.BUS STN.,19.1161487238,72.8298297045
1503,MARSHAL WADI,19.183579883,72.7980068969
1469,MAHARAJA BHUVAN,19.1366374456,72.8562830238
4515,LOCAL SELF GOVT.(KHERWADI),19.0710204254,72.8484631437
3680,AHILYABAI HOLKAR CHOWK,18.9329064443,72.8286107303
3542,BADHWAR PARK,18.9206616493,72.8262862023
3465,NAHUR RLY.STN.,19.1530969712,72.9433749939
2393,FORTIS HOSPITAL,19.163075,72.940469
1190,AGHADI NGR.,19.1264674264,72.8587908038
4675,GANDHI NGR.,19.1229594068,72.9255589774
3150,AHILYABAI HOLKAR CHK.,18.9330977924,72.8276953244
4461,DON BOSCO SCHOOL,19.2302865333,72.8422912614
4639,ATRIA SCTY.,19.2198676543,72.9639528084
234,PRESIDENT HOTEL,18.9143482377,72.8217178445
1288,KANDIVLI STN.RD.(W),19.2043475075,72.8493594495
2293,HARIYALI VILLAGE/LINK RD.,19.1095782966,72.9308804801
3724,CEREMONIAL HALL,19.1814653867,72.9409091872
271,DARUKHANA,18.9721539012,72.8452012061
890,KIDWAI RD.POLICE STN.,19.0050725224,72.8498131463
1682,CHANDIVLI STUDIO/NAHAR ENTERPRISE,19.1141170461,72.8919684029
3592,ASHOK NGR.,19.0791110976,72.8516685285
3598,BHAIDAYA NGR.,19.3110969208,72.8562020456
1261,KANJUR MARG VILLAGE,19.1318419375,72.9427762319
5187,DANA BAZAR SEC.19,19.083568,73.008316
636,DARPAN CINEMA/ SAI SERVICE,19.1138655946,72.8546403217
3327,MITH CHKY,19.1962646846,72.833601318
4435,LOKPURAM,19.2286544809,72.9693861723
5156,BANDRA(E) BUS STN,19.0554446901,72.8433133024
5205,INDIAN HUME PIPE CO.,19.0175694919,72.8699535558
4831,BRADBURY MILL,18.9752530425,72.8310391039
1153,TATA POWER HOUSE( CENTRAL RLY.-W ),19.0308464277,72.8486600589
2950,BANGUR HALL,19.1659067719,72.8331139208
3870,LOKMANYA TILAK HOSPITAL,19.0357552922,72.8584876727
3649,AHILYABAI HOLKAR CHK. EROSS CINEMA,18.932536676,72.8281513439
4547,SHETHIYA NGR.,19.0979549038,72.8879626476
481,MUNICIPAL SCHOOL,19.1804312142,72.953901905
3703,LAKSHYACHANDI SCTY.,19.1692443894,72.8711590501
4374,NANDESHWAR MAHADEO MANDIR,19.201690004,72.8411340879
2218,ORKAY MILL,19.1211598943,72.870658
3360,DAHISAR PHATAK (W),19.2466530298,72.8589372891
3912,GAIMUKH,19.2852877629,72.9363103843
1834,GANDHI MARKET,19.0811194623,72.9043946428
2983,KAILAS INDL.EST.,19.112731,72.917636
1007,MAHAVISHNU/SAMRAT HOTEL,19.2632706291,72.8745766616
1176,VIKHROLI STN.RD.(E),19.1098760807,72.9301288743
1283,SHOPPERS STOP,19.1163197461,72.8422486456
4457,BLOSSOM CO-OP.HSG.SCTY.,19.1115631336,73.0053074007
3939,AMAR MAHAL,19.062431561,72.8996302901
3169,"DR.AMBEDKAR UDN., POWAI",19.126576,72.893884
817,VASUDEO B.PHADKE CHK.,18.9382623884,72.8302854425
3334,KURLA S.T.DEPOT,19.0563956613,72.8836398328
4183,MACCHI MARKET(GOLIBAR),19.0716941325,72.8443040045
111,SANTACRUZ STN.RD.,19.0810769173,72.837867407
3875,SAWARPADA(GANESH CHK.),19.24231821,72.8669009972
5150,CHOGALE COMPOUND,19.2459524682,72.870790337
2733,MAHARSHI ARVIND CHK.,19.1756395856,72.9519264482
2064,GODDEV NAKA,19.3042622689,72.858991543
4587,H.P.NGR./B.D.PATIL MARG,19.0277450065,72.8942818547
3298,EKTA NGR.,19.2131114956,72.836593708
4869,PRATHAMESH COMPLEX,19.134099566,72.8376051433
3207,BORIVLI STN(E),19.2296969469,72.8576997386
4448,SAMARTH NGR.PUMPING STN.,19.1421408226,72.8210004981
36,MAHIM BUS STN.,19.042929316,72.8405178289
5175,BABASAHEB WORLIKAR CHK.,19.0125498692,72.821500661
1297,DR.AMBEDKAR(SHATABDI) HOSPITAL,19.208373,72.850458
4007,DINDOSHI DEPOT,19.1751975311,72.8636197335
4946,GATE WAY OF INDIA,18.9248049503,72.8328392619
3376,DEONAR POLICE STN.,19.0538570285,72.912662354
4836,BALBHAVAN,18.951272081,72.8178548138
157,CHUNABHATTI BUS TERMINUS,19.0515318033,72.8688013219
1455,RAM BAUG,19.1631603924,72.8436281801
606,NAFA,19.0714963722,72.8620029135
3261,KANDIVLI STN.(W),19.2061974609,72.851499573
2791,ANDHERI STN.(W) (KUMKUM),19.1186373223,72.8460549181
3011,MUMBAI CENTRAL STN.,18.9686004047,72.8206046488
2354,ATMARAM NGR.(SRUSHTHI),19.2706843556,72.8737936968
3354,MOTI MAHAL,19.0599489072,72.8341812407
3506,CEAT CO.,19.1557725748,72.9434608246
1678,KALINA MARKET,19.0794472993,72.867806248
3694,MITH CHKY,19.1955770008,72.8343132781
3460,VASHINAKA M.M.R.D.A.CLY.,19.037543051,72.9087883465
1213,ROBERT GOMES CHK.,18.981979036,72.834793183
4859,S.I.E.S COLLEGE,19.0451965829,73.0237825603
3991,PALI HILL NAKA,19.0592238489,72.8295892989
3154,J.V.P.D.BUS STN.,19.1167743131,72.8298176782
2722,GANESH SCTY.,19.219459292,72.8295591033
4861,VEERA DESAI RD.EXTN.,19.1350320855,72.8373047359
3572,WADARPADA,19.1713674424,72.950063444
3081,ACHARYA ATRE CHK.,18.9984289309,72.8179737626
524,POLICE CLY.,19.004575453,72.8170529078
865,PARSI AGYARI,18.9489403304,72.7997971221
623,PARLESHWAR MANDIR,19.1029742255,72.8459477901
4456,SANT RAJINDER SINGH ASHRAM,19.110711582,73.0021316653
4204,KALA NGR.,19.0543293745,72.8461185235
2497,TAGORE NGR.JUN,19.1240931904,72.9383720415
3372,BANWARI COMPOUND,19.0454786261,72.8468026831
4506,ESSEL WORLD GATE,19.2390793052,72.8028091447
4408,ISHWAR NGR.(BHANDUP-W),19.1438474988,72.9338686732
3021,GAUTAM NGR.,19.1188570986,72.870413921
1174,KANNAMWAR NGR.NO 1,19.1116520618,72.9346662815
667,MALLET BUNDER,18.9595068647,72.8459336474
2534,GARLIC CO.,18.9795670196,72.8279062566
4048,MAKHAMALI TALAO,19.1983633017,72.9717007529
96,CHH. SHIVAJI TERMINUS,18.9409747781,72.8345966953
2881,MULUND RLY.STN.(W),19.1740775353,72.9567557753
1741,JITENDRA MARG,19.1809331263,72.8500061911
3909,VERSOVA BRIDGE,19.2848826905,72.904789064
3317,DR.RAVINDRA KULKARNI CHK/SASMIRA,19.004429438,72.8170049561
3434,IRANI BRIDGE,18.959458404,72.8144194193
1861,MULUND CLY.,19.1750583509,72.9370719891
142,KALBADEVI,18.9472502824,72.8288825806
4064,JANAKI RESIDECY,19.3044430387,72.8445335881
4107,VIVEKANAND SCHOOL,19.062904376,73.0138109543
1692,VISHAL HALL/JUMBO DARSHAN,19.1190920198,72.8507453502
1387,DATTA PADA,19.2214267195,72.86482501
3322,ASMITA JYOTI,19.196400902,72.8266200938
3605,BANK OF BARODA(BKC),19.0602644222,72.8670034821
2863,NATASHA TOWER,19.1263833882,72.8212670077
4509,UTTAN PHATA,19.2753799557,72.7954706208
2845,YOGI HILLS (MULUND-W),19.1808952763,72.940172203
1089,PALI HILL NAKA,19.0597512377,72.8286460659
944,MATUNGA RLY PHATAK (E),19.0334791511,72.854615348
4969,SHATABDI HOSPITAL,19.0501847135,72.9103482567
4120,DON BOSCO VIDYALAYA(NERUL),19.0183614421,73.0160854675
3104,P.THAKRE CHK.,19.0192006775,72.8360876041
845,GAONDEVI POLICE STN.,18.960345732,72.8125623748
2017,ASHOK KEDARE CHK.,19.1477936751,72.9286450799
1201,FILTER PADA,19.1387944568,72.8933083444
2879,BORIVLI STN(E),19.2310835664,72.8577574471
4330,APTE HOSPITAL,19.1962962957,72.8388108789
2928,NAGRI NIWARA VIDYALAYA,19.140292,72.852939
1452,PALLAVI BLDG.,19.1308314178,72.8376094287
1420,MOTILAL NGR.NO 2,19.1634441533,72.8357317568
1500,I.N.S.HAMALA MAIN GATE,19.1929020435,72.7986077117
118,SHOPPERS STOP,19.1153096646,72.8432075787
4758,HIRANANDANI COMPLEX JUN.,19.0324369973,73.0660375478
1152,MATUNGA STN.(W),19.030260856,72.847217688
4233,VILE PARLE STN.(E),19.0986356202,72.8445779001
205,BHOIWADA/MANE MASTER CHK.,19.0759837,72.8776559
3853,DEONAR VILLAGE,19.0501939043,72.9198311481
1372,MT.POINSUR CHURCH,19.2446379091,72.8524527269
394,C.G.S.CLY.,19.1419328627,72.9382003801
4102,SHIVAJI CHK.(KHARGHAR SEC-8),19.0439475479,73.0681902749
4227,BEST QUARRIES,19.109510478,72.9034909225
1278,STATE BANK,19.110511601,72.8298479787
4663,C.C.I.,18.9310834669,72.8241643348
2933,KANDIVLI STN.(W),19.2039512522,72.8502781788
3934,KOPARI CLY.,19.1851702627,72.9746623327
5190,GAONDEVI JUNCTION,19.0643842,72.8976166
2012,EMPLOYMENT EXCHANGE,19.0905258742,72.902391549
4865,PRABHADEVI/RAVINDRA NATYA MANDIR,19.0153076049,72.829943746
3357,SARDAR NGR.NO 2,19.0371603285,72.8671728415
1042,SHIRAVANE VILLAGE,19.0514793365,73.0205874373
1886,SAMATA NGR./BONKODE,19.0913579728,73.0055366844
2858,RAM NGR.,19.2190892095,72.8479616898
1045,NERUL NAKA,19.0461090298,73.0253703772
3996,RAWLICAMP,19.0388395995,72.8684200237
3678,RELIANCE ENERGY TRNG CENTRE,19.1293910279,72.8822877843
1727,KOKAN VIKAS,19.1462266179,72.8697850266
4535,SAINATH NGR.,19.2696089193,72.9654080641
3270,CHINCHWADI/GARTEN PADA NO.1,19.2528993234,72.8735188251
2055,SURYA SHOPPING CENTRE,19.2744241707,72.8695170724
1313,CITIZEN BANK,19.2454628465,72.8508127587
1665,DHARAVI DEPOT,19.0517011671,72.8592997549
4750,MAHAPE GAON,19.112557195,73.0247391717
25,MADKEBUWA CHK.,19.0053063574,72.8396126581
592,NARAYAN DABHOLKAR MARG,18.952369251,72.7949886523
3047,"DR.AMBEDKAR UDN., POWAI",19.126576,72.893884
629,MAROL DEPOT,19.1179980883,72.8655601024
3932,GARTAN PADA,19.2504005612,72.8666832328
3844,A.H.ANSARI CHK./ NEW NAGPADA,18.9689665372,72.8331399913
1080,PRABHADEVI/RAVINDRA NATYA MANDIR,19.015571518,72.8297159732
557,RAM MANDIR,19.1515737447,72.8442997209
3242,SUNDER GALLI,18.975441077,72.8312606523
4793,LOKMANYA TILAK HOSPITAL,19.0361935487,72.8575433521
3254,WADALA STN.(W),19.0171567227,72.8590225782
64,CARDINAL G.SCHOOL/TEACHER'S CLY.,19.0707817368,72.846843506
4375,DATTANI GRAM BLDG NO.1,19.2015582886,72.840147035
4918,AAKASHGANGA SOCIETY,19.0456254387,72.8636802464
4709,RADHA NGR.,19.1929487238,72.8665522434
517,KHAR POLICE STN/SACRED HEART SCHOOL,19.0743375782,72.8375437376
4010,JAYGANESH TALKIES,19.171388844,72.9586978247
4044,SHRIRANG SCTY.(THANE),19.2003234965,72.983731857
3489,ADARSH NGR.NAKA,19.1524090199,72.8789903679
4854,RAJ BUCKET FACTORY,19.2880540431,72.8927163874
4069,BALAJI NGR.,19.3062858895,72.849844362
2985,ADITYA APTS.,19.2240331589,72.8407776562
3096,SHREE RAM MILL,18.9982514037,72.8220560847
4627,DAHISAR BRIDGE (LINK RD.),19.2585802793,72.8563499983
4453,A.D.MODI INSTITUTE (VIDYA NGRY),19.0708165943,72.8582280796
4678,HIRANANDANI POWAI BUS STN.,19.1176679862,72.9060122329
2801,HIGHLAND PARK,19.169802504,72.932312992
4739,KAPADIYA MARG (BORIVLI-E),19.2310067459,72.8584914722
4189,JOHAR CHK.,18.9546409678,72.8327128409
100,MAHARANA PRATAP CHK.,18.968750325,72.8401937201
4340,SUBHASH TOWER,19.2103317293,73.0166770841
4780,SHOPPING PLAZA,19.1069849259,72.9007442281
4647,KURLA S.T.DEPOT,19.057546476,72.8842010228
352,TELECOM FACTORY,19.0444431829,72.918382424
357,CHEETA CAMP,19.0368867567,72.9458735653
2887,KANNAMWAR NGR.HOSPITAL,19.1190272731,72.9408371083
4434,EDENWOOD,19.2327065483,72.969729495
4621,MATOSHREE RAMABAI K THAKRE UDN.,18.9989509273,72.8266839055
1873,KANNAMWAR NGR.BLDG.NO.188,19.1198382339,72.9403221241
1124,PREM NGR.,18.9500843804,72.7934101614
1501,KENDRIYA VIDYALAYA,19.1897406743,72.798779373
2764,NATIONAL COLLEGE,19.0635079464,72.8372218725
1248,KALPANA TALKIES,19.0773625373,72.8785625546
1060,KIRTI COLLEGE / INDIA UNITED MILL,19.0197122314,72.8322960253
2640,MAHARASHTRA NGR.,19.0518261044,72.9374797522
5094,MEGHWADI NAKA,19.1364282729,72.8567558327
3346,MATUNGA LABOUR CAMP,19.0382908182,72.8535682389
911,RUPAREL COLLEGE,19.0252270116,72.8454794552
2318,KENI VIDYALAYA,19.1507506252,72.9448522584
1771,ZULELAL CHK.,19.0813222494,72.9118136329
4021,BELPADA VILLAGE,19.0280852784,73.0590063912
4503,KHAJURWADI,19.241186259,72.7869304673
2228,CHH. SHIVAJI TERMINUS(BHATIA),18.9391939242,72.8381651484
180,AZIZ BAUG,19.0378270274,72.8948623173
134,JUHU KOLIWADA,19.0858727048,72.8281332369
1079,PRABHADEVI,19.0141132176,72.8305531437
660,DEVIPADA,19.2277984156,72.8631800711
3482,ACHARYA GARDEN/ DIAMOND GARDEN,19.0525325364,72.900813846
3874,RAHEJA CHEMBERS,18.9240625307,72.8250828968
3561,LALJIPADA POLICE CHKY,19.2034391354,72.8341216675
5169,APANA BAZAR,19.007854,72.844479
4731,ICICI BANK (MAHAPE),19.1087454765,73.0280508054
3823,SATYAM BLDG.,19.0052840538,72.8319748345
4367,DHARAVI POLICE STN.,19.0377532802,72.8585627746
4318,KANNAMWAR NGR.BLDG.NO.124,19.1177297274,72.941180431
2662,DANA BAZAR,19.0863440998,73.0103459001
2053,ADARSH BALWADI,19.2772294552,72.865277752
3383,CANTEEN STORES DEPARTMENT,18.9817189438,72.8533268701
668,RAILWAY CROSSING,18.9600040562,72.8439273551
1769,TAGORE NGR.NO 5,19.1103497429,72.9309665791
1568,MAHAVIR NGR.,19.2099819136,72.8369910311
1937,ASHOK NGR.,19.1171215781,72.8830157578
3312,GHATKOPAR STN.(W),19.0858485017,72.9078807118
3463,LALLUBHAI COMPOUD POLICE CHK.EY,19.0509887256,72.9229514192
5144,CADBURY COMPANY,19.2052730004,72.9679956554
45,TELEPHONE EXCHANGE,19.0512020027,72.8358937418
171,PRIYADARSHINI,19.0525373,72.8801425
3351,SANTACRUZ STN RD/ KASHIBAI HOSP.,19.0841447595,72.8375870662
909,ZARAPKAR STORES,19.0233297005,72.8448475047
22,SANT JAGNADE CHK.,18.9910708053,72.8356901624
2245,SUNDER GALLI,18.9776880219,72.8293224901
3321,MARVE VILLAGE,19.195171707,72.8006676482
614,VERSOVA LINK RD.,19.123378872,72.8242616161
1442,SHIMPOLI VILLAGE,19.2237900249,72.8440392224
1054,MARATHI VIDNYAN PARISHAD,19.0535542407,72.8767901553
1133,NAVJEEVAN SCTY.,18.9656254555,72.8192046981
1081,SHANTI BAUG,19.0560201993,72.8949027602
2444,VIJAY NGR.,19.1220082339,72.8798422515
1324,VAISHALI BHAVAN,19.2054834908,72.8388291877
3025,DR.SHYAMAPRASAD MUKHERJI CHK.,18.9241635742,72.8320526878
3109,LOKMANYA TILAK HOSPITAL,19.035382715,72.8600056388
378,R.T.O.OFFICE,19.0721038956,72.9096988709
5063,RAM GANESH GADKARI CHK,19.0254324637,72.8402962712
1449,HELEN-JOE MUN.GARDEN,19.1300316074,72.8432279267
5018,SAKHAR BHAVAN,18.9270028074,72.8219268566
1636,TELI GULLY,19.1155939643,72.8494595109
3320,MARVE VILLAGE,19.1949082655,72.7994123744
279,DNYANESHWAR NGR.,19.0057494704,72.8540875628
3478,KRISHNA NGR.,19.0989757002,72.8878674208
4722,BUDDHAVIHAR(MALVANI),19.1944253404,72.8258327039
662,SHARDA CINEMA,19.0139557342,72.8465237334
4124,NERUL SECT.-46/48,19.008096213,73.0164287902
938,SWAMI NARAYAN CHK.(DADAR STN-E),19.0759837,72.8776559
5177,MANGALDAS MARKET,19.0759837,72.8776559
4037,KALAMBOLI POLICE STN.,19.0243872665,73.1056564309
1765,SHELL CLY./ SAMAJ MANDIR HALL,19.0636064331,72.8935898798
1740,DESAI MUNICIPAL HOSPITAL,19.1807709945,72.8522163313
5006,HINDUSTAN NAKA/C.CHARANSINGH CHK.,19.2079596488,72.8292159867
545,HAFFKINE INSTITUTE,19.0014650656,72.8445123004
1345,DR.AMBEDKAR RD.,19.0686441095,72.8300969067
2359,SARDAR NGR.NO 1,19.037611649,72.8653811259
3412,RAMESHWAR BANK,19.2273476107,72.8410042149
4858,BANDRA COLONY,19.0607283377,72.8500831082
1770,PESTAM SAGAR/GLASS FACTORY,19.0701367413,72.9012273809
5030,GARTAN PADA NO-2,19.2482532095,72.868700254
1126,NAGPADA POLICE STN.,18.9664705953,72.8300765305
1100,16TH RD/KHAR,19.0731566557,72.8310278675
3397,STATE BANK,19.1164278022,72.8800058662
489,KASTURBA GANDHI HOSPITAL,18.9834335277,72.8288229372
227,WADALA FLY OVER BRIDGE,19.0186324254,72.8632468266
2016,SHIVAJI TALAO,19.1465546337,72.9290400115
160,TATA CLY.,19.0528646482,72.8733998431
862,EVERARD SCTY.,19.051119482,72.8775954972
170,EVERARD NGR.,19.0507964755,72.8752883027
1618,SAHYADRI NGR.,19.1429048934,72.9282789496
4059,JAMA MASJID,19.285010838,72.8575190552
2883,MULUND RLY.STN.(W),19.1726284163,72.9558760108
1339,SISTERS BUNGALOW,19.0487579584,72.8205042994
4093,GAURAV RESIDENCY,19.274438104,72.8612741478
4023,BALBHARATI VIDYALAYA (KHARGHAR),19.0338461755,73.0623967034
1226,N.L.VIDYALAYA,19.188572158,72.8464811105
4643,SHIVSHAKTI NGR.,19.0557616855,72.8810038296
5135,DR.AMBEDKAR UDYN POWAI,19.1196578651,72.9017343639
4412,ANGAN WADI,19.2694892828,72.8882776255
4174,BANDRA BUS STN.(W),19.0541800426,72.8394094919
3486,MULUND STN.(E),19.1717118929,72.9581343335
3824,PAREL S.T.DEPOT/SANT ROHIDAS CHK.,19.0082815763,72.8328063193
4055,TATA MOTORS,19.1947229164,72.9485283217
477,GOREGAON-MULUND LINK RD,19.1603027592,72.9467116619
2897,ASSISI NGR.,19.0607106277,72.9130138994
4960,SHREYAS CINEMA,19.0916858298,72.9021466524
549,SHARDASHRAM VIDYAMANDIR,19.0166556991,72.8379298395
365,MAROLNAKA/MATA RAMABAI AMBEDKAR CHK,19.1084595671,72.8786982486
120,ANDHERI MARKET,19.1221491076,72.8463060133
815,VASUDEO B.PHADKE CHK.,18.9432084706,72.8299273106
318,KANNAMWAR NGR.NO 2,19.1176533456,72.9408675487
4975,GURUNANAK HIGH SCHOOL,19.036338075,72.8640653968
1731,DAIRY RESEARCH INSTITUTE,19.1521050256,72.8688838044
4625,RAM GANESH GADKARI CHK.,19.0240991927,72.8396914096
391,ANKUR HOSPITAL,19.1290205755,72.9329841724
331,VIKAS VIDYALAYA,19.1206741797,72.9390007312
1693,JUMBO DARSHAN,19.1133746351,72.8544789851
3240,KARTVYA NGR.,19.0068979915,72.8576398622
2849,JAIN MANDIR,19.2004067995,72.848669793
210,AZAD NGR.,19.0140030056,72.8556198379
1884,JUHU VILLAGE,19.0866903452,73.0031250377
4607,KURLA NAGRIK SAHAKARI BANK,19.1490165291,72.9462606184
588,CHH. SHIVAJI INT.AIRPORT(SAHARA),19.1037622899,72.8777017711
1004,NOVELTY SILK MILL,19.2539425862,72.8657028681
674,WADI BUNDER,18.9574477063,72.8426587539
4307,BRAHMAND PHASE-3,19.2538088443,72.9812867415
4567,MERCHANT & CO.,19.2061747115,72.8227786056
4744,SHERLI VILLAGE,19.0724972209,72.8218410673
1087,DEONAR BEST STAFF QUARTERS,19.0476218126,72.9142717909
3350,SANTACRUZ STN RD/KASHIBAI HOSP.,19.0841120016,72.8378212204
3701,DHIRAJ VALLEY SCTY.,19.0759837,72.8776559
699,AMBIKA MILL B.STN/ H.U.RAKHANGI CHK,18.9889182323,72.8226127015
597,MUKESH CHK.,18.9647415879,72.8046164306
4789,AAKASHGANGA SOCIETY,19.0392153319,72.856739062
3033,BHAGATSINGH NGR./SEJAL PARK,19.1560002992,72.8356465063
5034,N.G.PARK,19.23823445,72.8710436379
1506,YOGASHRAM,19.1703658297,72.7965477751
1327,KALA MARUTI MANDIR,19.2052821685,72.845844974
1445,HANUMAN MANDIR,19.2105781732,72.8241334737
2330,SWAPNA NGRY(YOGI HILL),19.1825192362,72.9420249861
1465,GANDBHIR VIDYALAYA,19.132907372,72.8498028069
902,INCOME TAX OFFICE,18.9405426334,72.8266724404
1072,HOLI FAMILY HOSPITAL,19.0548223674,72.8274780428
488,SANT GADGE MAHARAJ CHK.,18.9807147725,72.8264425017
878,PLAY HOUSE,18.9603177241,72.8286358446
4225,CANARA BANK(KHARGHAR),19.0351038096,73.0636412484
675,PRINCESS DOCK,18.9557836056,72.8421866852
189,TATA POWER CENTRE(CHEMBUR),19.0313378692,72.8968021626
906,KAMGAR STADIUM,19.0128162618,72.8367472335
3594,AZAD NGR.,19.2955727814,72.8569654325
5080,WAGHDEVI NAGAR,19.2471274543,72.870532845
5092,MUNICIPAL GUMPHA SCHOOL,19.136853983,72.8554469147
4045,KOLBAD,19.2043180045,72.9757437918
4875,GANDHI NGR,19.1913500145,72.8664150723
408,CIBA CO.,19.1359517458,72.9293518333
1002,DAHISAR STN.RD.(E),19.2487466353,72.862665087
4035,MAHATMA GANDHI HOSP/PANVEL NAKA,19.0184637504,73.1058710076
4628,VITTHAL RAKHUMAI MANDIR,19.2568036453,72.8667024719
1378,GOKHALE BRIDGE,19.1156563928,72.8464724131
3250,MAHESHWARI UDN.,19.0274831171,72.8568965693
3566,EKTA NGR.,19.200502645,72.8237228226
3761,HYDERABAD EST.,18.9567916459,72.8014943393
1513,MADH MARKET,19.1500157371,72.7911404418
4919,GHATKOPAR STN.(E),19.0853211134,72.9082416456
3924,MANPADA,19.2352436251,72.9759561223
1192,GURUDWAR CHK.,19.126260381,72.8637207935
3208,OMKARESHWAR MANDIR,19.2313763151,72.8624642533
2372,KINNARI HALL(KANNAMWAR NGR.),19.1090771198,72.9334861095
156,CHUNABHATTI,19.0520127947,72.8675204409
856,BABULNATH TEMPLE,18.9578800586,72.8090433165
4849,FIRE BRIGADE/KHARODI CLY.,19.195562881,72.8217606815
507,DR.COOPER HOSPITAL,19.1084645384,72.8369858381
2024,GAONDEVI NAKA/MADHUKUN BLDG,19.1520671946,72.9290301077
1810,MHADA CLY.BUS STN.(MULUND-E),19.1658484282,72.9649887796
5132,RAJKUMAR,19.1260810831,72.8406985733
5111,RAJASHRI CINEMA,19.2543104062,72.8645088206
4545,MAHARASHTRA KATA,19.10166549,72.8880484783
3113,CHAKALA (SATAMWADI),19.111944383,72.8586636141
5079,INTER STATE BUS STN.,19.0360489845,72.8785632068
42,KHADI BHANDAR,18.9356910915,72.8334011266
1547,ALIKA NGR.JN.,19.1975103092,72.8724690247
3715,M.T.PARK,18.9086938302,72.814071588
4769,DR.AMBEDKAR STATUE,18.9261423178,72.829745727
4626,PASSPORT OFFICE,19.0118981487,72.8216900652
688,CHINCH BUNDER,18.9586506468,72.8382947095
3377,ANUSHAKTI NGR.,19.0431901964,72.9237352525
440,S.K.PATIL GARDEN,18.9495036442,72.8212515923
4830,NEW AGRIPADA,18.9741167066,72.8310391039
1227,MILAP TALKIES,19.1918551404,72.8467815179
4928,PICNIC POINT ROAD,19.2264495536,72.8687457729
3419,SHREE SAI HOSPITAL,19.2138074634,72.867042576
4596,GANDHI NGR./CHETANA COLLEGE,19.0597419908,72.847761572
447,VATSALABAI DESAI CHK.,18.9790678632,72.8118941321
3943,RAILWAY POLICE CLY.(GHATKOPAR,19.083912832,72.9058537645
5194,AGARKAR CHK,19.1189762,72.8481638
758,AUGUST KRANTI MAIDAN,18.9631181462,72.8105172905
4422,KRISHNA VATIKA,19.2613911946,72.8615792675
4384,NILAM NGR.PHASE-2,19.1758476644,72.9644913961
221,ANTOP HILL POLICE STN.,19.0319242042,72.8649301746
4522,SAI CHITRA SCTY.,19.2166274713,72.821232697
1539,KANDIVLI BUS STN.( E ),19.2026651822,72.8527305889
3294,RAVIKIRAN SCTY.,19.1792267284,72.8166790783
4934,TUMNI PADA,19.2256391172,72.8696899105
99,MAZGAON COURT,18.9687940517,72.838936245
4765,MAMA HOTEL,19.0724118744,72.8273707309
869,PHOENIX CHEMICALS,18.9851416694,72.837087777
404,AGAR BAZAR,19.0181942927,72.8325441
3770,DR.AMBEDKAR NGR.NO.2,19.0763371651,72.8987246103
1530,DATTANI GRAM(KANDIVLI-W),19.2027530116,72.8396901683
4815,MAJETHIA COLLEGE,19.2028707982,72.8415105242
1640,NEW AIR INDIA QUARTER'S,19.0803598482,72.8731921237
2065,SHIRDI NGR./RAM NAGAR,19.3061760002,72.861802498
1385,DATTA TEKDI/SHIV TEKADI,19.1390589961,72.8618523098
3332,PODDAR HOSPITAL/SIDDHARTH NGR.,19.0017012285,72.8155988233
4063,BISHOP SCHOOL,19.2949955712,72.8484181419
4646,NAIK NGR.,19.0582563305,72.8854670254
2325,MANAV KALYAN KENDRA,19.2461130602,72.8609484732
956,G.S.CLY.,19.0622162949,72.8477401143
339,SUBHASH NGR.,19.0606452236,72.9039681238
4629,SHANTI ASHRAM JN.,19.241285238,72.8444178464
3216,Y.B.CHAVAN MARG JN.(VASHI),19.0686002732,72.9972660321
3431,ANDHERI STN.(W),19.1196106939,72.8454850949
2058,S.K.STONE,19.2871288197,72.8670767897
4216,COCACOLA CO.,19.2809516237,72.9285866987
1457,C.C.I.CLY.,19.1629171684,72.8394653917
4426,SANTACRUZ POLICE CHKY- BEAT NO.2,19.0833718402,72.8313839187
4306,ST.XAVIERS HIGH SCHOOL,19.2485418143,72.9780251753
3638,MAHARSHI ARVIND CHK.,19.1754516112,72.9526482479
842,KAPADIA NGR.,19.0748765844,72.8721745379
2962,VEER KOTWAL UDN. (PLAZA),19.0212698657,72.8419348197
4001,GOKUL HEAVEN,19.2136392727,72.8661557765
566,KACHPADA,19.18943,72.83556
3551,VIJAY NGR.,19.1200938136,72.8785141922
1088,MOTI MAHAL,19.0592741922,72.8354645883
1493,MALAD STN-W(ANAND MARG CHKY),19.1893238764,72.8486488066
5014,GOVIND NAGAR JUN.,19.2347307014,72.8551972119
1602,THAKUR COMPLEX,19.2082458208,72.8676366131
2789,BELA NIVAS,19.1140722244,72.8620067041
580,PARSIWADA,19.1088389751,72.8556687125
5100,ADARSH NAGAR,19.1426029176,72.8313212637
1353,BANDRA TALKIES,19.0601922827,72.836418203
5166,DADASAHEB SARFARE CHK,19.0759837,72.8776559
3145,CHARNI RD.RLY.STN.,18.9507758176,72.820729338
4282,JANATA DAIRY,19.2687031661,72.8760315085
5056,GATE WAY PLAZA,19.123791001,72.9145271071
1713,MILAN TALKIES,19.0894431067,72.8382707282
2792,CATERING COLLEGE/SURYAVANSHI HALL,19.024,72.83519
873,KASTURBA GANDHI CHK.,18.9549533852,72.825702212
4916,SIDDHARTH NGR.NO.2,19.1625962477,72.8416282307
561,FILMISTAN,19.1631042578,72.8458255215
3688,DHOLEDEV MANDIR/VASARI TEKDI NO.2,19.173871,72.838167
12,ZAKERIA MASJID,18.9530445124,72.8338805984
3422,"SANKALP SCTY.,NGRYNIWARA",19.0759837,72.8776559
1703,NEW QTRS( CHAKALA CIGARETTE FACTORY,19.1077392871,72.8592602199
5197,NERUL POLICE STN.,19.0759837,72.8776559
925,BANDRA POLICE STN,19.0560535829,72.8348255967
4797,BORIVLI STN.(E),19.2314802993,72.8600856435
4695,SHASTRI NGR.(THANE),19.2159376024,72.9562198888
362,SAFED POOL,19.0967047133,72.8836617171
982,MALBAR HILL POST OFFICE,18.9507262672,72.8005052253
3051,AMAR MAHAL,19.0657252138,72.8993779719
4931,NATIONAL PARK GATE,19.2315754708,72.8638534237
2644,OM BUILDING,19.0045858543,72.8148551498
1726,CHOTHA KASHMIR/OBSERVATORY POINT,19.1616645922,72.8722741165
4884,SANT MUKTABAI HOSPITAL,19.0981811012,72.9007856504
2749,GREEN LAWN ACADEMY,19.27796359,72.8791497888
455,DOORDARSHAN,19.0068054696,72.8182136157
383,VIKHROLI STN.RD.(W),19.1108850181,72.9253614645
2322,BORIVLI PHATAK (E),19.2317628337,72.857741015
582,SAHAR P.& T.CLY.NO 1,19.1051893771,72.8609902152
3872,LOKMANYA TILAK HOSPITAL,19.0356234444,72.8599521588
1443,GANESH MANDIR/KASTUR PARK,19.2236279353,72.8514206616
573,MALVANI BLOCK NO 7,19.1860362885,72.818824508
5040,MANTRALAYA,18.9284340874,72.8246470803
4354,INDRALOK PHASE-2,19.3023173963,72.864336567
3977,GORAI PUMPING STN.,19.2195552022,72.84061971
3778,ANAND NGR.POLICE CHKY,19.1775703582,72.9676671316
2127,DURGA PARMESHWARI MANDIR,19.2193023,72.8335163
4755,BHARAT NGR,19.0615807855,72.8592611562
4092,POONAM SAGAR COMLEX,19.2733607831,72.8630046689
4943,JIJAMATA UDN.,18.9798550703,72.8340246779
2085,SARDAR CHK.,19.1862248651,72.8418915081
4842,SHIV MANDIR,19.1291420899,72.8431924922
2324,PARVAT NGR.,19.2431553024,72.8601330817
1687,SAHAR AIR INDIA HOTEL,19.1031382651,72.8703325061
4845,WALMIKI NGR.,19.0675322369,72.8527546781
5186,KOPARIPADA,19.0759837,72.8776559
810,RESERVE BANK CLY.,19.0526558292,72.8992182986
4528,SHIVAJIRAJE COMPLEX EXTN.,19.2019834491,72.8219472234
4654,KALANGR.,19.0619274779,72.8518466613
5167,TATA HOSPITAL,19.0037208601,72.8422492186
1053,RANI LAXMIBAI CHK.,19.0464857821,72.8655034197
364,MITTAL EST.,19.1069574935,72.8840680801
1141,CAFE PARADISE,18.9617551599,72.8301577768
4177,PEER MEHMOOD SHAH BABA DARGAH,19.1130229262,73.0068952685
268,VIKHROLI PARK SITE,19.1051396074,72.9128705266
1756,SHIVAJI NGR.POST OFFICE,19.0669718783,72.9264994458
374,MORARJI NGR.,19.1293070543,72.8961407571
4958,ANDHERI MARKET,19.1227936812,72.8449586669
4752,U.T.C.FIRE & SECURITY CO.,19.1087454765,73.0286873834
3679,MARVE BEACH-ESSEL WORLD,19.1989409005,72.7987579154
224,ANTOP HILL,19.0263356665,72.8662326555
4820,MUMBAI CRICKET ASSO.EAST GATE,19.0650869845,72.8625407061
1535,OLD PUSHPA PARK,19.1887220329,72.8571091186
1724,DINDOSHI PADA,19.1643269821,72.8817914102
3647,MILIND NGR.,19.1255466416,72.8932870522
3204,BORIVLI STN(E),19.2306187951,72.8576782809
4355,LODHA COMPLEX,19.2934037785,72.8563094213
905,KAMLA MILL,19.0029722739,72.8299333717
4416,KASHIMIRA,19.2726896277,72.882484054
4127,AMRUTA VIDYALAYA,19.0521956911,73.016772113
2286,A.T.I.,19.0531882725,72.8810716401
3937,DR.RAVINDRA KULARNI CHK./SASMIRA,19.0101545786,72.8200569819
1279,SUKHMANI HOSG.SOC.,19.1141002575,72.8297836057
620,SEEPZ BUS STN.,19.1257095996,72.8732570625
1119,DR.SHYAMAPRASAD MUKHERJI CHK.,18.9255817986,72.8328547271
2473,SHIVPREMI NGR.,19.0971057203,72.8978692627
1305,GOMANT NGR.,19.243897869,72.8589802045
5028,SHEJAL PARK,19.2492661147,72.8677561164
4548,D'SOUZA NGR.,19.0959677797,72.8878553592
4887,SANT MUKTABAI HOSPITAL,19.0976312978,72.9016494748
1985,APEEJAY SCHOOL,19.0358049465,73.0197270094
207,SPRING MILL,19.0118700268,72.8489479999
3855,TELECOM FACTORY,19.0455020559,72.9187291754
3968,BRAHMAND-AZAD NGR.,19.2512158661,72.9801709425
3092,ACHARYA ATRE CHK.,18.9984999418,72.8178181944
3541,ADV. PALJIBHAI BORICHA CHK.,19.1417109834,72.8293471579
5093,JANASHAKTI POLICE CHOWKY,19.1366107202,72.8561979332
3962,SWAMI VIVEKANAND CHK.,19.1821968952,72.9679443979
5016,GOVIND NAGAR JUN.,19.99762,73.803529
1150,BANDRA STN(E),19.0551652143,72.8419007452
2652,JAWAHAR NGR.,19.1599828549,72.8459113522
1219,DATTAGURU DEVSTHAN,19.1551100148,72.8411934179
1413,EKSAR VILLAGE,19.2358195112,72.8457702058
1366,VIVIDH BHARTI,19.2321254339,72.8305238753
2715,GAMMON HOUSE,19.0146406763,72.826283067
3454,INS ASHWINI HOSPITAL,18.9009425795,72.8144693851
4414,AGRAWAL GREEN VILLAGE,19.2711097184,72.8941570277
4950,MANO-BINA APTS.,19.1163051751,72.8387476511
4788,RANI LAXMIBAI CHK.,19.0437999534,72.8641737728
2450,SHYAM NGR.,19.1391114899,72.8633339178
2757,STATE BANK(BHANDUP VILLAGE),19.1473046592,72.9458822267
3961,VIJAY GARDEN,19.2623996053,72.9682823158
4224,GIRDHAR PARK,19.1959015071,72.8315167236
3922,PATLI PADA,19.24646807,72.9759114401
3982,DHARAVI PUMPING STN.,19.0472876236,72.8614999244
4176,GHANSOLI VILLAGE,19.1220246957,72.9994709139
627,CHAKALA,19.1161640271,72.8557814548
1129,ZAKERIA MASJID,18.9528784466,72.8338359136
3901,KADAMWADI(KANDIVLI-E),19.1955446482,72.8683169652
1546,SAI GARDEN,19.2004283606,72.8739710618
259,NITYANAND NGR.,19.0912579506,72.9137695475
5200,"""D""MART (NERUL)",19.019044,73.015367
5082,LOKMANYA TILAK CHK.,19.1861624385,72.8428981505
5163,MAHARANA PRATAP CHK.,18.9682238988,72.8403624352
990,POLICE CAMP,19.009576887,72.8153940993
1743,DR.SUCHAK CHK.,19.1893161848,72.8499064543
640,JOGESHWARI POLICE STN,19.138639426,72.8550265598
3447,D.A.V.COLLEGE,19.1392570347,72.9360546129
4311,DHEERAJ UPVAN,19.2183740932,72.8705391455
308,MAKER TOWER,18.9157373813,72.8174810918
4441,OSWAL PARK,19.2156871936,72.9753943204
4762,SWAN MILLS,18.9964873293,72.849280846
4508,TARODI,19.2868842877,72.7999338166
4219,SHREE KRISHNA NGR.(BORIVLI),19.2321281446,72.8632170672
4737,KRISHNAGIRI/UPVAN,19.2261359913,72.8676117011
4052,M.I.D.C./ PASS-PORT OFFICE,19.1944189446,72.9511461577
4760,VEER KOTWAL UDYAN(SHIVAJI MANDIR),19.0212039361,72.8418936925
4145,ANNABHAU SATHE NGR.,19.0563551799,72.930024469
1610,POST & TELEGRAPHS,19.1693971954,72.9457251809
980,KAMLA NEHRU PARK,18.95531,72.8045
4965,COM.P.K.KURNE CHK.,19.0062814837,72.82224843
3099,PT.PALUSKAR CHK.,18.9566071337,72.8156693842
3865,MULUND TOLL NAKA/MHADA CLY.,19.1673758025,72.9657144834
4382,WAMANRAO MURANJAN VIDYALAYA COMPLEX,19.1748748412,72.9674954702
372,"DR.AMBEDKAR UDN., POWAI",19.126576,72.893884
3940,BHARANI NAKA (ANTOP HILL),19.0255952473,72.8709962588
4308,BRAHMAND PHASE-6,19.2584274852,72.9762227308
361,JARIMARI,19.0943120327,72.8833183943
2876,SAMATA NGR.BUS STN.,19.2065820687,72.8696620688
692,ALANKAR CINEMA,18.9580819447,72.8269468518
1431,JANKALYAN NGR.POLICE CHKY,19.1993664492,72.8204301642
3336,VISHNU NGR.,19.0230892014,72.90108299
4809,P.THAKRE UDYAN BUS STN.,18.9981617711,72.8524824077
248,CHIRAG NGR.,19.0863086132,72.896121347
3464,CHEMBUR NAKA/SWAMI VIVEKANAND CHK.,19.0510332454,72.893175816
3742,CHAKALA,19.1152684261,72.8604832094
5188,PRIYADARSHINI,19.0525373,72.8801425
4056,DNYAN SARITA (THANE),19.1949356963,72.9456601355
776,SHITALADEVI TEMPLE MARG,19.0389512055,72.8427038173
685,TADWADI,18.9654235104,72.8389891442
764,B.P.T.CLY.,18.9920897302,72.8519258188
1864,AMAR NGR.,19.1663569361,72.9328923492
3290,J.V.P.D.BUS STN.,19.116136542,72.8272468491
696,NOVELTY CINEMA/ DR BHADKAMKAR RD.,18.9618437497,72.8183368797
5128,NEHRU NAGAR,19.0631792681,72.8848885815
4119,SEAWOOD-DARAVE RLY.STN.,19.0209894453,73.0177221803
3734,SHAKTI HOSPITAL,19.143708768,72.846117186
3353,BANDRA TALAO,19.056678154,72.8366447603
3148,DR.SHYAMAPRASAD MUKHERJI CHK.,18.9262478414,72.8316187314
4527,GHATKOPAR STN.(E)/HAVELI BRIDGE,19.0837404657,72.9054460687
209,MADHAV NGR.,19.0127006388,72.8547913263
4086,JOGESHWARI VIKHROLI LINK RD.,19.1250713585,72.9386530136
1508,ERANGAL VILLAGE,19.1686633286,72.7918270873
2646,PARASIK BANK(NERUL),19.0409976353,73.0215294538
3488,ADARSH NGR.,19.1548819381,72.8788616219
4418,CASTLE MILL,19.2056736519,72.9775737835
2004,TAPOVAN ( PATHANWADI),19.1802845981,72.8590881508
4481,DIGHE VILLAGE,19.1740933187,72.9985820454
2037,BANDRA PHATAK(E),19.0573106106,72.8415108579
863,WALKESHWAR,18.9465861117,72.7957416221
199,ACHARYA GARDEN/ DIAMOND GARDEN,19.0524716898,72.8998911661
3028,RAM GANESH GADKARI CHK.,19.0247053398,72.8406820723
3692,LIBRA SCTY.,19.1995299674,72.8204612565
671,DOCKYARD RD.RLY.STN.,18.9679534,72.8442356108
4706,SHRIKRISHNA GARDEN SCTY.,19.2681928394,72.8759499527
721,B.P.T.CLY.,18.9639062344,72.842056056
1917,GELDA NGR.,19.0868725699,72.8990101612
1076,VENUS BLDG/WATUMAL ENGG.COLLEGE,19.0030614932,72.812315766
3289,MUMBAI CENTRAL STN.,18.96880965,72.8204669342
3379,ANUSHAKTI NGR.BUS STN.,19.0426831117,72.9263530885
2908,DR.AMBEDKAR GARDEN,19.0610727282,72.9006430859
1978,VASHI SECT.NO 26,19.0877585869,73.0100920266
1460,AYYAPPA MANDIR,19.1657243569,72.8322556139
2641,MAHARASHTRA NGR.,19.051994547,72.9364832283
405,RANADE RD.,19.0224993603,72.8382874011
4832,CRIST CHURCH SCHOOL,18.9716816751,72.8291508288
4653,BYCULLA STN (E),18.9762107696,72.8335718269
1852,HANUMAN MANDIR,19.0851370237,72.8988081178
3367,MAHARASHTRA KATA,19.1029958846,72.8883954466
5137,ST.THOMAS HIGHSCHOOL,19.1702179438,72.8496040134
3073,BORIVLI STN(E),19.229248975,72.8587306183
4211,GKD (ONLY ALIGHTING),19.087815445,72.9183803156
5181,CHETANA COLLEGE,19.0606754,72.8482738
2246,SIMPLEX MILL,18.980295982,72.829212014
1243,RANI LAXMIBAI CHK.(BUS STN.),19.0428288898,72.8637220741
3165,MAJESTIC CINEMA,18.9550444951,72.8189416792
50,MANTRALAYA,18.9286867079,72.8246703809
1168,JOHN BACKER,19.1127766153,72.8886102063
657,DATTANI PARK,19.2103825008,72.8683062485
2763,KANDER PADA- LINK RD.,19.2584735133,72.8547680584
1832,GHATKOPAR STN.(E)-1,19.085590859,72.9087827368
4671,BANDRA BUS STN./ P.MOHD.RAFI CHK.,19.0533316386,72.8378463899
3836,JAY MAHARASHTRANGR.,19.2216014783,72.8703638294
332,VIKHROLI STN.RD.(E),19.1090997389,72.9323798717
3373,FOUR BANGALOWS,19.1297320297,72.8221049425
4846,GOVT.COLONY BLDG.NO.10,19.0694791419,72.8495789427
1695,LOKMANYA TILAK NGR.,19.101900975,72.8901120604
2191,ROOP TALKIES,19.0805949772,72.8446181938
299,WORLD TRADE CENTRE,18.9143976499,72.8193908246
5149,TATA HOSPITAL,19.0043876326,72.8412958629
3323,ASMITA JYOTI,19.196400902,72.8267917552
4927,TEEN MURTI,19.2301977697,72.8659562755
1885,VASHI SECT.29,19.0884785481,73.0042492241
2998,TOWNSHIP MUNICIPAL SCHOOL,19.1963875853,72.8253868865
4458,KINGSTON SEZ(HIANANDANI),19.1143429777,72.9088596659
4353,INDRALOK PHASE-1,19.3003529906,72.8627916146
4293,SHIVAJI CHK./KALWA NAKA,19.1963596549,72.9875910536
3716,GANESHMURTI NGR.POLICE CHKY,18.9098306114,72.8136424346
4450,MHADA CLY.-INDRALOK(ANDHERI-W),19.1394041833,72.8236183341
1863,JAY SHASTRI NGR.,19.1717076695,72.9343943862
4166,SARVODAY HOSP/GHATKOPAR POST OFFICE,19.089561894,72.9080416444
3461,VINAY HIGH SCHOOL,19.0332224931,72.9019648068
1730,KARIM BUNGALOWS,19.1518947241,72.8716733017
5033,MANTRALAY,18.929110216,72.8227180491
1135,HUTATMA CHK./MUMBAI UNIVERSITY,18.9305519996,72.8314002277
1696,SUBHASH NGR.,19.0992753193,72.8979980087
3942,RAHEJA COLLEGE,19.0849833899,72.8322553926
5007,HINDUSTAN NAKA/CHARANSINGH CHK.,19.2077423178,72.8292262509
613,ABHISHEK APTS.,19.121090906,72.8263930103
1669,NATURE PARK/P.M.G.P.CLY.,19.0514748649,72.8635675141
2956,DR.AMBEDKAR GARDEN BUS STN.,19.0607669109,72.9005348963
5060,RAI DONGARI,19.2266616992,72.8624141194
4452,BHAVANS COLLEGE,19.1253553875,72.8382758903
3880,KUMBHARWADA,19.0377228541,72.8535094928
1177,VIKHROLI POLICE STN.,19.1188113169,72.936413914
1086,GOVANDI STN.RD(W),19.0553696668,72.9159025739
1791,TATA NGR./SAMBHAJI NAGAR,19.0521651008,72.9208592962
242,KURLA DEPOT,19.0755374014,72.8770819752
2595,A.H.SCHOOL,19.2847954836,72.8575564528
2620,FOREST CLUB,19.1142618791,72.9058405715
3245,NAVRANG TALKIES,19.1243139781,72.8415917223
3217,ALANKAR CINEMA,18.957980476,72.826525745
5098,PRATAP SOCIETY,19.1304163823,72.8232692509
3666,PERU BAUG,19.1665191306,72.8544227861
3596,VENUS APT.,18.9707951,72.81517
3490,NAVJEEVAN NGR.,19.149814443,72.877874569
401,GAMMON HOUSE,19.0136239807,72.8248450816
4004,CHANDIVLI VILLAGE,19.1131802554,72.9037698723
910,GIRLS SCHOOL,19.0244054448,72.8452219631
3570,CHETANA COLLEGE/KHERWADI,19.0596608654,72.8493279821
1104,JAMBLI MOHALLA,18.9556365319,72.8298168154
4109,JUINGR.RLY.STN.,19.055927584,73.0154417373
3450,BALLARD PIER,18.9368547904,72.8404503905
4749,HOTEL TRIDENT,19.0696543836,72.8722017366
70,HANUMAN SCTY.BLDG NO.5,19.1037244372,72.8514194965
1073,CITYLIGHT CINEMA,19.0299419184,72.8416482504
2949,MITHA NGR.,19.1631603924,72.8376629473
4533,BANK OF BARODA JN.(BKC),19.0650207101,72.8620274519
3347,PIONEER HIGH SCHOOL,19.0313695453,72.8544866019
4260,ISMAIL YUSUF COLLEGE,19.1333939081,72.8553388863
4314,MARINE LINES RLY. STN.,18.9466356634,72.82347592
376,BHANDUP VILLAGE(E),19.1493519771,72.9441441553
1344,L.I.C.CLY.,19.0652267632,72.8298716011
1734,KRANTI NGR.,19.1943267371,72.8724745609
912,MATUNGA STN.(W),19.0286799892,72.8467035933
3691,IJMIMA,19.1828003466,72.8293908377
4249,GANDHI NGR.,19.1252206397,72.92864539
4872,NEW AGRIPADA,18.9780383841,72.8270549486
4321,KOHINOOR COMPLEX BLDG NO.3,19.0810583291,72.8884079965
1786,LOKMANYA TILAK NGR.,19.0658118732,72.8954605723
3641,MAHATMA PHULE MARKET,18.9469690854,72.8352406657
5124,JAIN MANDIR,19.083726903,72.9090821111
503,VASANTRAO NAIK CHK.,18.9700026667,72.8150075826
5031,DATTATRYA APTS.,19.0450064125,73.017787594
413,BHANDUP POLICE STN.,19.151118216,72.9376579771
1319,BRIMCO,19.2068092464,72.8212923276
4447,ROCK AVENUE,19.2115151287,72.8311695013
3196,JAGAT SATGURU INDL.EST.,19.1688296936,72.8543154977
2243,BHAKTI PARK GATE,19.0330671762,72.8787971269
2021,TEMBIPADA PIPE LINE ( BHANDUP),19.1550250318,72.9291493352
295,BEHRAM BAUG,19.1459989219,72.8345000556
647,GEN.A.K.VAIDYA MARG JUN.,19.1739864855,72.8593741693
4472,MANTRALAYA,18.928428774,72.8238003762
2238,NATURE PARK/P.M.G.P.CLY.,19.0516403201,72.8624754904
4718,MUNICIPAL PUMPING CENTRE,19.0239977642,72.8395090193
385,B.M.C.OFFICE-VIKHROLI,19.11792,72.925936
3615,DON BOSCO (LINK RD.),19.2304272156,72.8407467228
124,AJIT GLASS FACTORY,19.1468710202,72.8430551759
1671,KALAKILLA,19.0480685117,72.8576733062
479,URBAN CO.OP.BANK,19.1690974508,72.9525954493
3241,GARLIC CO.,18.9767397356,72.8301448534
2799,NOORANI MASJID (PATHANWADI),19.1798795211,72.8599348553
4123,SAIDHAM SCTY.(NERUL),19.0105712866,73.0159567215
1337,FATHER AGNEL ASHRAM,19.0447115153,72.8190923845
864,TEEN BATTI,18.9482503042,72.7981877967
502,BHATIA HOSPITAL,18.9650101888,72.8129584769
4040,C.B.D.BELAPUR JUN.,19.0239409815,73.0399530389
1964,FRUIT & VEGETABLE MARKET,19.0726370712,73.0094058691
3355,MULJINGR.,19.2172054748,72.8504753392
188,LUBE INDIA CO.,19.0145801767,72.898260383
3118,VASUDEO B.PHADKE CHK.,18.9437528254,72.8287624895
2314,JAIN MANDIR (OM NGR.),19.1069897482,72.8671148194
1880,AIROLI BUS STN.,19.157341538,72.9982494515
4191,KHAMBEKAR STREET,18.9583953436,72.8377339362
3421,SAMANA PARIVAR,19.1762701603,72.8772546364
5011,NILDHARA BLDG.,19.2374860161,72.8516781537
4759,VAZIRA NAKA,19.2286684433,72.8455445531
771,B.P.T.HOSPITAL,19.0124186595,72.8624829935
577,MARATHA CLY.,19.0735916366,72.847063589
3854,MAHALAXMI MANDIR,19.0477802692,72.9201959286
1295,SHIVAJI NGR.,19.2441004559,72.8538303632
1118,LION'S GATE,18.9267996552,72.8339490684
2281,MAHAVIR NGR.EXTN/PARIJAT SCTY.,19.2150488764,72.838643871
5148,"DR.AMBEDKAR UDYAN,POWAI",19.126576,72.893884
844,WADALA GATE NO 2/5,19.0174517461,72.8593749305
4432,PAWAR NGR.(THANE),19.2183018176,72.9697723896
3057,NAHUR VILLAGE,19.1620837869,72.9374897114
4138,JUIPADA VILLAGE,19.0495589769,73.0171583511
5026,MAHESHWARI UDYAN,19.0279760978,72.8558091223
2730,CENTRAL DAIRY TABELA,19.1583404697,72.8791405716
275,TANK BUNDER,18.9884475968,72.8453943251
3228,MAHARANA PRATAP CHK./POST OFFICE,18.9712271615,72.839589959
2603,PRAPTI SCTY.,19.2224122584,72.8407776562
1009,KASHIMIRA,19.2731834589,72.8824971857
2540,CHANDAN CINEMA,19.1146058158,72.8266621276
91,LION'S GATE,18.9280089383,72.8339898544
1894,GHANSOLI VILLAGE,19.1261813426,73.0049981134
987,WORLI SEA FACE (N),19.0162916578,72.8184063946
3936,BORIVLI STN (E)/SUKURWADI,19.2311530171,72.8582313204
976,SAHYADRI NGR.,19.2103804136,72.8289164458
181,VASHINAKA,19.0330084533,72.8968222646
565,CHINCHOLI BUNDER RD.,19.1797177809,72.8365037642
3925,LOKIM CO.,19.2278292943,72.9770272391
4773,GOREGAON STN.(E),19.1644159383,72.8510170855
101,ANJEERWADI,18.9724254728,72.8404308091
4180,SIDDHESHWAR SOC/GHARONDA,19.1238493189,73.0028612261
2700,BHANDUP STN.RD.,19.1478611129,72.9374806878
2394,MERIND CO.,19.1616614546,72.944464885
775,LOWER PAREL WORKSHOP,18.9973984194,72.8312713393
1754,KAMAL AMROHI STUDIO,19.135561334,72.8738464013
4841,LOKMILAN SOCIETY,19.1136842337,72.9001589819
1065,RANI LAXMIBAI CHK.,19.0448955152,72.8640704359
3324,MARVE VILLAGE,19.1958809704,72.8046480464
109,KHAR,19.0691726662,72.8336219991
4087,JOGESHWARI VIKHROLI LINK RD.,19.1243009701,72.9380951142
4334,VASHI JUN.-Y.B.CHAVAN MARG JN.,19.0685645362,72.9969965309
4289,NEW SHAKTI MILL,19.202066198,72.979150644
4635,DAMU NAGAR. BUS.STN.,19.1989617423,72.8804217745
2190,SUVARNA HOSPITAL,19.2236279353,72.8501332013
739,SEWREE NAKA,18.9891577466,72.8462955474
4610,R.B.I.CLY.(BHANDUP VILLAGE-E),19.1470502896,72.9474407903
4696,LAXMINARAYAN RESIDENCY,19.2199892243,72.9648969459
3744,SANGHARSH NGR.(CHANDIVLI),19.1055944199,72.9005307906
641,BALASAHEB THAKRE TRAUMA CE/S.R.P.CA,19.0759837,72.8776559
18,BYCULLA STN(E),18.9725501205,72.8331663711
2371,MAHIM PHATAK,19.0448194248,72.8445281699
2964,MERCURY BLDG.,19.2101483722,72.8747904524
3267,SEWREE COURT,18.9933265109,72.8513480407
2120,SWAMI D.SARASWATI CHK.,18.9344665935,72.8371090869
4936,KANHERI CAVES BASE,19.2230254328,72.8720931698
1766,SAHAKAR NGR.(SCLR),19.0751691,72.8725634
603,MILITARY CAMP,19.0811290421,72.8588057204
759,GODREJ CHK.,18.9640719201,72.8078779968
4595,Y.B.CHAWAN PRATISHTHAN,18.9265933374,72.8272770919
3111,GHATKOPAR STN.(W),19.0858408974,72.9073764565
3173,N.L.COMPLEX JUN.,19.259689636,72.8650285883
5077,WADALA DEPOT MONO RAIL STN.,19.0368603516,72.8740141803
598,PARSI GENERAL HOSPITAL,18.96897014,72.8036809607
1195,TAKSHILA,19.1307450074,72.8687686214
4115,TERNA VIDYALAYA,19.0383220487,73.0145405151
5112,CRYSTAL HOSPITAL,19.2549586424,72.8620197307
4278,SHANTI DHAM,19.2707894839,72.8734136725
1323,DAHANUKAR WADI,19.2075498134,72.8356093373
3194,OMKARESHWAR MANDIR,19.2313353595,72.8626086855
2840,MULUND RLY.STN.(W),19.1744828809,72.9581719817
1259,GAWANPADA,19.1739425468,72.9617877294
4863,SUBHASH NGR.,19.0642977925,72.847679849
754,CHRIST CHURCH SCHOOL,18.9693766069,72.8297276579
4501,KOLYACHI BAWDI,19.2442656042,72.7849992769
738,SEWREE RLY.PHATAK,18.9960561863,72.8529045104
3646,INORBIT MALL,19.1724548163,72.8360687206
74,SHIVAJI CHK.,19.1113885678,72.8500032901
3548,SHIVAR GARDEN,19.2908944107,72.8631052034
3361,BORIVLI PHATAK (W),19.2365235343,72.8577356595
1165,DIVINE CHILD HIGHSCHOOL,19.1124502421,72.8658905427
4106,SANPADA POLICE CHKY,19.062904376,73.0100773193
3948,DR.BABASAHEB AMBEDKAR CHK.,19.0765001606,72.8616543927
3985,SUDAMA NGR.,19.2418927726,72.864883976
1833,RAJAWADI HOSPITAL,19.0777567102,72.9038744516
1609,ASIAN PAINTS,19.1596885441,72.9376344947
838,INCOME TAX OFFICE,19.0584174471,72.8538854252
2709,SHAKTI NGR.,19.2597504062,72.8617884798
1881,VASHI RAILWAY STN.,19.0643008047,72.9999696988
1575,SAMATA NGR.BLDG NO 3&5(KANDIVL-E),19.2064723047,72.8681530105
4164,S'CRUZ STN.RD/KASHIBAI HOSP.,19.0841606823,72.8376806422
1773,SOMMAIYA COLLEGE,19.0741012308,72.9030388003
2982,MUNICIPAL GARDEN,19.1155733119,72.9164174218
1108,KHAMBATA LANE,18.9603935237,72.8241880807
2685,RANI LAXMIBAI CHK.,19.0431994626,72.8639537522
2714,AGARWADI,19.0456601706,72.9256351172
3990,ST.PETER'S CHURCH,19.0560088563,72.8298641359
4338,VATSALABAI DESAI CHK,18.9772021045,72.8095412893
4190,CHAR NAL,18.9583704733,72.8363037471
4300,RETI BUNDER - KHARIGAON(KALWA),19.201575414,73.0216525818
713,DAWN MILL,18.9981393751,72.8286580114
2687,COLABA BUS STN.,18.9125744619,72.8231382846
4824,SHOPPERS STOP,19.1162655758,72.8436201584
705,RESERVE BANK,18.935927538,72.837091586
492,JOHNSON & JOHNSON CO.,19.175518921,72.9424275415
1309,MUNICIPAL SCHOOL,19.1789254853,72.8445070046
3685,MARATHON CHK.(TEEN HATH NAKA),19.1886909233,72.963720333
1758,SHIVSENA OFFICE,19.0613306728,72.9076681355
4633,JAIN MANDIR,19.1997595889,72.8485238678
1320,CHARKOP NAKA,19.2089360301,72.8225864428
24,PAREL WORKSHOP,19.0013298657,72.8378102136
897,HUTATMA CHK. (SIDDHARTH COLLEGE),18.9329958767,72.8315519869
4483,VITAVA,19.187104416,72.9905997914
1277,PARASMANI/MADHUKUNJ SCTY.,19.1086057292,72.8298479787
4226,RAJKUMAR,19.1263553958,72.8396221645
509,ESIC NGR.,19.1242702762,72.8306563352
2750,HITCO,19.2800384973,72.8767951982
4386,JEEVAN JYOTI ENGLISH SCHOOL,19.1785634323,72.97182992
2934,KANDIVLI STN.(W),19.2039738573,72.850207169
1424,AZAD NGR.,19.1286259754,72.8377768047
725,SWAN MILLS,18.996461968,72.8493210791
4496,UTTAN TEL.EXCHANGE,19.2820234009,72.7977022187
395,BHANDUP STN.(E),19.1430893306,72.9395931354
3316,SEWREE POLICE STN/DARUKHANA,18.9785738315,72.847769333
605,VIDYA NGRY,19.0728145601,72.8612733527
5114,KRISHNA IND.ESTATE,19.2546952968,72.867298318
1239,TECHNICAL SCHOOL,19.2418941836,72.8543938023
4343,PAREL S.T.DEPOT/SANT ROHIDAS CHK,19.0093399393,72.8325259642
653,KURAR VILLAGE,19.1878110026,72.8583872956
1698,LUCKY HOTEL,19.1068180026,72.8917752838
1899,DIVA VILLAGE,19.1481154812,72.9938830392
3560,JANTA CLY./SHIV MANDIR,19.1995880419,72.8337729794
82,PAREL S.T.DEPOT/SANT ROHIDAS CHK.,19.0099824994,72.8311849116
896,HUTATMA CHK. (SIDDHARTH COLLEGE),18.933790825,72.8320904205
1521,MARVE VILLAGE,19.1946042941,72.7993801879
1472,SANTOSH NGR.(DINDOSHI),19.1678862079,72.8764221699
4844,BANDRA RLY. STN.(W),19.0580142957,72.8414178399
2583,BORIVLI STN-W (DIAMOND CINEMA),19.2286727182,72.8553182154
3582,SAPTARANG SCTY.,19.0796231406,72.8574835577
2838,HOLY ANGLE VIDYALAYA,19.1732941666,72.9626176023
3929,MAJIWADA,19.2146918483,72.977363714
1997,RANI SATI MARG MUNICIPAL SCHOOL,19.1801636458,72.8450010023
1425,KOLSITE INDU./ JUCHANDRA SOCY,19.0759837,72.8776559
995,GUNDAVLI/LION'S CLUB,19.1160404708,72.8550832521
168,NEHRU NGR.MUNICIPAL SCHOOL,19.0611688369,72.8821267581
3050,RAM GANESH GADKARI CHK.,19.0242817638,72.8397504182
4043,RABODI POLICE STN.,19.2004450809,72.9849549443
1235,BORIVLI BUS STN(W),19.2301638306,72.8564322811
2590,DNYAN SARITA,19.1787281949,72.9504608867
87,NAVY NGR.,18.9079393907,72.8059461549
220,ANTOP HILL CHURCH,19.0313480886,72.8671553016
4385,NILAM NGR.BLDG.NO.3/4,19.1747532379,72.9631181051
1303,MUNICIPAL HOSPITAL,19.2530545486,72.8585081357
5046,KANDIVLI STN (W),19.2047175148,72.8513603043
4964,MAHATMA JYOTIBA PHULE CHK.,19.1736957565,72.9351171595
669,NIRMAN BHAVAN,18.9659296527,72.8471460059
1194,HOLY SPIRIT HOSPITAL,19.1275400174,72.8675488117
2830,GANESH MANDIR,19.2156143646,72.8219622578
3750,BHAKTI PARK COMPLEX,19.0257527137,72.8787020543
1437,RANA & SONS,19.2107046188,72.8259338293
3704,MINILAND SCTY.,19.1469590717,72.9346304206
253,GOPAL BHAVAN,19.0905279599,72.9097355052
11,CHAKLA MARKET,18.9494286,72.8346616
1717,SARASWAT BANK,19.1069932576,72.8270136984
4659,BALKRISHNA R.GAWADE CHK.,19.004990944,72.83096334
689,DONGRI,18.9583699768,72.8374607082
4551,SAFED POOL,19.0947834231,72.8834876227
40,AFGHAN CHURCH,18.9062909571,72.8165447284
31,RAM GANESH GADKARI CHK.,19.0251271702,72.8404614906
840,BHARAT NGR.,19.060607834,72.8584237229
1859,AGRA RD.NAKA,19.1779210664,72.9435843925
228,KORBA MITHAGAR,19.0163112579,72.8645492326
4952,GHODAPDEV,18.9803420556,72.8424360854
822,MINERVA TALKIES,18.9657391443,72.8190382387
1496,RATODI,19.1967928761,72.8154305266
1642,VAKOLA MASJID,19.0817171238,72.8561664267
5172,MOHD.ESTATE,19.0759837,72.8776559
4181,VADARPADA,19.1902202868,72.8721408525
4304,BALKUM NAKA,19.2210435861,72.9888355504
298,CUFFE PARADE POLICE STN.,18.9122132925,72.8178167585
4436,VASANT-VIHAR,19.2265473663,72.9700728178
706,INDIRA DOCK,18.9377884182,72.839763745
1083,POST OFFICE,19.0598010064,72.8985482348
1188,RADHA SILK MILL,19.1256521844,72.8555668781
4480,AIROLI RLY.STN. (E),19.1589428102,73.000051896
182,SHANKAR MANDIR,19.0291748332,72.8971347783
4839,ICICI BANK,19.1145763192,72.8960391088
112,KHIRA NGR.,19.0875948013,72.838074815
226,INDIAN OIL DEPOT/BARKAT ALI DARGAH,19.0759837,72.8776559
3783,MUNICIPAL GARDEN,19.2254107317,72.8424865275
1976,SAURASHTRA BANK/STATE BANK,19.0832618035,73.008457625
3186,BORIVLI STN(E),19.2288549197,72.857628701
2926,DATTA MANDIR(SHIMPOLI),19.2236279353,72.8465283124
5038,SHANTI BAUG,19.0626360275,72.8979241216
4220,VEER KOTWAL UDN.(NEAR UDYAN),19.0211075773,72.8418060737
2621,SHETTY VIDYALAYA,19.1157520596,72.9059414225
3066,VAKOLA POLICE STN.,19.0805040447,72.847036875
3390,RAM MANDIR,19.1525762902,72.8446730484
666,PT.PALUSKAR CHK(MARWADI VIDYALAYA),18.9573619942,72.8170516141
826,KHODADAD CIRCLE (DADAR WORKSHOP),19.016389371,72.8499293115
4947,MAFATLAL MILL,18.975938,72.837574
633,SAMBHAJI NGR.,19.0988210798,72.8538249301
1787,MUNICIPAL SCHOOL,19.0673885927,72.8948378843
529,D.N.NGR./BARFIWALA VIDYALAYA,19.1270679855,72.8310425733
4517,KHERWADI POLICE STN.,19.0670686482,72.8499905727
2609,BHANDUP VILLAGE,19.1443704407,72.9502830719
2857,PEPSI GARDEN,19.2305974625,72.8241187601
3063,INDIAN OIL NGR.,19.1292353464,72.8313317415
380,NALANDA SCTY.,19.0762032635,72.9140551777
3308,SARVODAYA HOSPITAL,19.0888757791,72.9069749079
1779,TAGORE NGR.UDN./VIKHROLI BRIDGE,19.1073489956,72.9295074574
2777,BEST NGR.,19.1531846346,72.8402638109
4740,V.J.T.I.COLLEGE,19.0238917158,72.8570511545
3227,MAHARANA PRATAP CHK.,18.9686953194,72.8409724436
3210,OMKARESHWAR MANDIR,19.230565468,72.8626730585
564,RAJASTHANI SAMMELAN CAMPS/CHINCHOLI,19.1778081529,72.846118667
3613,CHIKOOWADI/PADMA NAGAR,19.21967,72.839238
3859,KACHWADI,19.0521714362,72.9168914471
5160,KHERWADI JUN.,19.0628491374,72.8469887994
4984,SUKH SAGAR,18.9563697383,72.813673906
2992,FISHER ROSE MOUNT CO.,19.0445154783,73.0264765603
960,MAHARASHTRA BANK,19.139278411,72.8256564383
4814,ANAND NAGAR POLICE CHOWKY,19.1721184774,72.9682563725
4689,A.P.M.C. MARKET (SOUTH GATE),19.0730570444,73.0134595883
2689,KHAMBATA LANE,18.9603954142,72.8242002698
3108,ACHARYA GARDEN/ DIAMOND GARDEN,19.0521268917,72.9007923884
3188,KETAKI PADA,19.2552390589,72.8702465301
5068,DADAR STN-W (KABUTARKHANA),19.0197595193,72.8406978792
5210,LAXMI PARK(MIRA ROAD),19.2872398,72.8579803
496,SEVEN BUNGALOWS BUS STN.,19.1309708691,72.8199207614
1720,AAREY HOSPITAL/ MUNICIPAL SCHOOL,19.1486660052,72.8765806853
3178,SHREE KOTESHWARI MANDIR,19.2144399342,72.8688158674
3578,GHATKOPAR STN.(E)-1,19.0852157124,72.9081604643
3628,ANJANABAI MAGAR/S.SAINIK SURVE CHK.,19.0759837,72.8776559
1352,TOBACCO CO.,19.0490317743,72.826259247
167,NEHRU NGR./ SHANTARAM RAUT CHK.,19.0611891181,72.8800775504
1808,GADKARI QUARRY,19.0225211977,72.907949445
1399,UTPAL SANGHAVI SCHOOL,19.1089069929,72.8265284291
3757,CIPLA CO./MILITARY CANTEEN,19.1169191277,72.9259427281
3759,ERLA MASJID,19.1113638904,72.8373077032
3664,CADBURY JN.(THANE),19.2046147257,72.9689005267
4871,SALVATION ARMY,18.9764962379,72.8273124407
1456,LOKMANYA TILAK NGR.,19.1632009297,72.8420832277
4488,DATTA WADI,19.2007015299,72.998813572
866,WHITE HOUSE,18.9501580166,72.8016853972
2234,KALA NGR.(MHADA OFFICE),19.0543101192,72.8471602784
4585,DAMYANTI SMRUTI,19.2644189408,72.9786144757
1041,JUINGR.STN.( HERDILLA CO.),19.0559413919,73.0191283156
4650,MARVE RD./SWAMI SHIVANAND CHK.,19.1914157576,72.8465852768
808,GANESH TALKIES,18.9883250885,72.8336486797
315,TRANSIT CAMP DISPENSARY,19.0402188981,72.8692354152
3305,GHATKOPAR STN.(W),19.0863782672,72.9082562211
293,MAHATMA GANDHI VIDYALAYA,19.1454516105,72.8368818572
2939,10TH RD.,19.05760319,72.9004992502
3518,TATA CLY.,19.0622536582,72.8578329345
4837,C.B.D.BELAPUR/KONKAN BHAVAN,19.0268589204,73.0357385186
1197,POONAM NGR.,19.1358517493,72.8701666477
4032,TALOJA PHATA,19.032744745,73.0856149651
554,GOLDEN TOBACCO,19.1049553056,72.8395197195
2326,RAJASHREE CINEMA,19.2517853233,72.863909632
4231,NEW INDIA QTRS.,19.1163051751,72.8347994395
416,BHANDUP VILLAGE(W),19.1517996933,72.9429458405
92,OLD CUSTOM HOUSE,18.9308911427,72.8356206375
1666,JIJAMATA NGR.,18.9925924247,72.8206413428
1910,HIND RECTIFIER CORPN,19.1524725944,72.9327208273
2693,BANK OF INDIA,19.0552381466,72.8305078661
3221,GIRIDHAR PARK,19.1958201765,72.8317383574
4108,SANPADA TEL.EX/ST.NIRANKARI BHAVAN,19.0585641969,73.0141113617
4676,GANDHI NGR.,19.1236522193,72.9251060691
2827,CHUIM VILLAGE,19.0718685468,72.8253118458
282,GHATKOPAR STN.(W),19.084978157,72.9063701627
975,HINDUSTAN NAKA/C.CHARANSINGH CHK.,19.2075281158,72.8294141416
137,JUHU BEACH,19.0980391385,72.8268457766
823,DR.SHIRODKAR HIGH SCHOOL,18.9987907608,72.8396957557
1158,GURU TEG BAHADUR NGR STN,19.037382,72.864969
3751,CHARKOP SECT.NO.8,19.2147927848,72.8134833157
3528,SANT GADGE MAHARAJ CHK.,18.9804304849,72.8261192705
1306,SAI AMRUT SCTY.,19.2416288782,72.8587656277
1933,INCOME TAX CLY.,19.1308869158,72.8607649097
1253,DUNCAN CO.,18.961712,72.828541
1338,MUNICIPAL GARDEN/BAND STAND,19.0466181223,72.819806925
44,MAHIM,19.04012,72.84161
5153,R.T.O.OFFICE (TARDEO),18.9693533124,72.8164667043
5170,BHOIWADA POLICE STN.,19.0759837,72.8776559
1360,KHAR STN (W),19.0697643812,72.8396216126
4584,GONDHALEWADI,19.2636593326,72.9775998878
691,GOL MANDIR,18.9581331576,72.8289820798
1515,PASCAL WADI,19.1423939407,72.7964619445
777,MAHIM STN.( W ),19.0403029609,72.8465533896
3731,MOMIN NGR.,19.1374246254,72.8485097164
2786,KURAR VILLAGE EXTN.,19.1904026746,72.8694586435
4523,CHARKOP EKDANT SCTY.,19.2177216194,72.8211039509
10,MAHATMA PHULE MARKET,18.9451049251,72.8340495246
2954,SUBHASH NGR.,19.0602167731,72.9047816885
126,BEST NGR.,19.1530830382,72.8409788412
891,KHAMBATA LANE,18.9567088168,72.8284058787
4544,VIJAY PRINTING PRESS,19.0959880566,72.8837784015
3931,THANE STN.(E),19.185008135,72.975949793
46,AKSHAY,19.0467094,72.8592389
4556,SEWREE STORE,18.9888611718,72.8562880288
4979,PT.PALUSKAR CHK.,18.9567451758,72.8157553002
5203,DOSTI ACRES,19.0244401,72.8670558
500,WILSON COLLEGE,18.9560393226,72.8112220415
4071,BHAYANDER PHATAK(ON BRIDGE),19.2950968331,72.8519801154
3650,JEEVAN BIMA MARG,18.9285127792,72.8253800857
1526,NATIONAL DAIRY,19.1908403397,72.831081085
1103,MILAN SUB-WAY,19.0894292768,72.8435230731
4466,SWAMI NARAYAN MANDIR,19.2348806375,72.8613712646
169,KURLA BUS STN (E),19.0650032738,72.8807763647
80,PARLE TILAK VIDYALAYA,19.103149,72.847093
4738,SARVODAY HOSPITAL,19.0879590321,72.9051470754
2937,DR.AMBEDKAR CLY./18TH RD KHAR,19.0738461638,72.8293970844
1273,UNIT NO 2 & 3,19.1649423597,72.8665814101
4368,KAMRAJ VIDYALAYA,19.0396954637,72.8597322177
4383,JAIN MANDIR,19.1769015498,72.9664225866
4091,ASMITA SUPPER MARKET,19.2728341506,72.8656432475
2841,SHIVAJI NGR.JN.,19.0621147645,72.9176371638
4196,DR.M.IQBAL CHK.,18.9583953436,72.831918907
2710,SOMPURI MARKET,19.0808190774,72.8397650199
263,JAGRUTI NGR.,19.0925417693,72.9016709325
861,MADKEBUWA CHK.,19.0054987546,72.8395809614
1594,SHREE KRISHNA NGR.(BORIVLI),19.2331811915,72.8640685845
3043,KAMANI,19.0851522284,72.8851317941
2030,BHANDUP PEOPLES SCHOOL,19.1398627826,72.9250608855
3427,COLABA BUS STN.,18.9112790953,72.8210592755
5057,STATE BANK,19.2240885533,72.8577363469
1839,JAIN MANDIR,19.0815938922,72.9087212924
1742,MALAD STN-E(PODDAR PARK),19.1856351336,72.8501501568
144,BHULESHWAR,18.9525979425,72.8295477685
1033,SSC BOARD OFFICE/ST.LAWRENCE SCHOOL,19.0741783254,73.0015952765
2904,DERASAR LANE,19.0832928197,72.9054623193
4597,AIROLI NAKA,19.1658240499,72.9996978444
596,PETROL PUMP/MAHESHWARI MANSION,18.9640668468,72.8032806905
382,ASHA & USHA,19.1082162625,72.9236735294
1522,MALAD STN-W(KASTURBA CHKY),19.1886770104,72.8468875695
3695,DR.SHYAMAPRASAD MUKHERJI CHK.,18.9257294702,72.8321742593
2632,GREEN PARK,19.1510557839,72.8336604569
4002,NABARD NGR.,19.2113496012,72.8684088321
179,MARAWALI CHURCH,19.0420743965,72.8933417269
1998,SHANTARAM TALAO,19.1855113056,72.8586558201
1204,MAHATMA PHULE NGR.,19.1374970664,72.8970848947
3758,"""D""MART SHOPPING CENTRE",19.186055,72.835849
3633,DR.B.AMBEDKAR BHAVAN (VIDYA NGRY),19.0716480713,72.8562539737
119,ANDHERI STN.(W),19.1199165888,72.8454312048
2947,NAGRI NIWARA ZONE 1 & 2 GATE,19.1723492,72.8809619
4194,SANDHURST RD.STN.,18.9617145733,72.8389125146
3155,J.V.P.D.BUS STN.,19.1161660815,72.8295172708
4445,SHREE SIDHHISAI MANDIR,19.2134617133,72.8350596372
196,MAHUL VILLAGE,19.0146898313,72.8880127022
3180,VOICE ROY PARK,19.2120996173,72.8729786558
558,SAHARA,19.154461632,72.8453385504
1098,DANDPADA,19.0750832152,72.8262857219
2560,BORIVLI STN(W),19.2308075161,72.8561346528
499,TARAPOREWALA AQUARIUM,18.9490951604,72.8194827549
1550,GAUTAM NGR.,19.2003550939,72.8778360652
4615,LALIT CLINIC,19.1875907923,73.0214988392
4417,STATE BANK,19.1737235881,72.8441555791
618,SHREE SWAMI SAMARTH NGR.,19.140204422,72.8261502241
1264,NAVGHAR RD.,19.168591886,72.9603715231
4153,INDIAN BANK(HIRANANDANI THANE-W),19.2498528765,72.9794606229
250,GHATKOPAR PIPE LINE,19.0875331961,72.9030013082
4455,VIDYA NGRY/NEHRU LIBRARY,19.0719319893,72.8586143177
3713,PRIYADARSHINI,19.0525373,72.8801425
659,MAGATHANE DEPOT,19.2212443661,72.8658120629
1606,ASHOK VAN,19.244798366,72.8673100029
387,GANDHI NGR.,19.1249223455,72.9251755664
148,JAGATDEV.N.VARMA CHK/KAPOLE NIWAS,19.0230088253,72.8517122486
4027,BELPADA,19.0323390519,73.0657880761
4914,ICICI BANK,19.0668937114,72.8645026639
1434,CHARKOP POLICE STN.,19.2146610798,72.8210650266
4098,I.R.B.COMPLEX (POWAI),19.1135496733,72.9012637405
1125,MASTAN TALAO,18.9647755945,72.8306977291
3588,SHIVAJI NGR.,19.078599053,72.849839262
2303,B.S.E.S.SUB STN.,19.0591520028,72.8993099821
2664,VASHI SECT.NO.10/15,19.0823139775,73.0001722664
2744,GHODAPDEV,18.9808183686,72.8430554389
741,MADHAV NGR.,19.0117483037,72.8527460079
872,PHANASWADI,18.9527037956,72.8246346343
2487,DR.K.B.HEDGEWAR CHK.,19.163317656,72.9400242822
3686,"""C"" CROSS RD.JN.",19.1228586,72.8718451
1286,RANI SATI NGR.,19.1801009504,72.8469531792
3579,GHATKOPAR STN.(E)-2,19.0850686953,72.9078707857
3863,MADH SONAPUR,19.1407722365,72.7912262725
5090,MATRUCHHAYA CHS(D.N.NGR),19.127716723,72.8325446104
4630,RAILWAY CLY.(KANDIVALI),19.2008133213,72.850669635
664,VILEPARLE STN(E)/DINANATH NATYAGRUH,19.1008051991,72.8446422731
1543,SAMBHAJI NGR.(KANDIVLI-E),19.201113054,72.8614568035
5162,CHINCH BUNDER,18.9588879618,72.8384065989
2151,ODEON CINEMA,19.0815047575,72.9120550318
2160,PATEL NGR.,19.1765154378,72.8698858804
4733,L & T INFOTECH GATE NO.5,19.109961992,73.0328573239
1269,GOREGAON CHECK NAKA NO 2,19.1303759939,72.880349189
2649,BORIVLI STN-W (JAYA TALKIES),19.2269862886,72.8552350551
3239,I.B.P.CO.,19.0041388296,72.8557086717
520,GURU NANAK MARG,19.1073072813,72.8291771215
1689,HOLY CROSS SCHOOL,19.0804706763,72.8894364158
5211,BEVERLY PARK,19.2887880957,72.8649076478
3105,MAHESHWARI UDN.,19.0252090803,72.8603288649
1963,KONKAN BHAVAN,19.0243799149,73.0398993422
5208,CINEMAX,19.2211596,72.9769711
1336,CHOKSI HOSPITAL,19.1923751528,72.8437117385
1790,EVEREST CO.OP.SCTY.,19.0606953347,72.8902917112
4679,BUSA UDHYOG BHAVAN,18.9982364832,72.8533328754
3635,FORENSIC LAB,19.0745553051,72.859350584
1292,DHARAMSHI HALL,19.2263832834,72.8549354333
174,UMARSHI BAPPA CHK.,19.054061719,72.8895960962
4668,RIDDHI SIDDHI,19.137604892,72.8073300378
5054,SEEPZ VILLAGE,19.1301751134,72.8767513278
4360,RAHAT APT.S,19.0754251468,72.8800526087
3698,AAREY UNIT NO.8,19.1692646573,72.8626188966
1509,BHATI VILLAGE,19.1660690074,72.7901104735
106,MASIANA HOSP/RUSTOM BAUG,18.9759977084,72.8375307674
5015,PANDYA HOSPITAL,19.2331909465,72.855454704
2090,JIJAMATA VIDYALAYA,19.1880445239,72.8655651905
619,LOKHANDWALA COMPLEX JN.,19.1417684727,72.8314851587
297,ANIK DEPOT,19.0461705058,72.8787112962
1761,THAKKAR BAPPA CLY.,19.0570845271,72.887164882
369,STATE BANK,19.1079105827,72.8882668835
4207,RANI LAXMIBAI CHK.,19.0431707916,72.8641044837
2456,JANKIDEVI VIDYALAYA,19.1412691573,72.8192087825
7,HUTATMA CHK.,18.9264391247,72.8297885331
2981,VARSHA NGR.,19.1084770865,72.9153338094
2101,VAIKUNTH DHAM,19.1164248411,72.8218761154
3984,JAGERDEV COMPOUND,19.2449923632,72.8695081044
2899,ALLAHABAD BANK,19.1124709474,72.853166132
5139,P.L.DESHPANDE UDYAN,19.1725892575,72.8529514103
2287,P.M.G.P.CLY.,19.1348381458,72.8700379017
4492,RAIGAON,19.2974967223,72.8219493882
1144,SIMPLEX MILL,18.979874348,72.8311434778
3690,RAJAN PADA,19.1789091833,72.8311074514
360,BAIL BAZAR,19.0878324095,72.8812462577
943,PIONEER HIGH SCHOOL,19.028848369,72.8533536622
3013,MUMBAI CENTRAL STN.(S.T.DEPOT),18.9695354419,72.8210237006
2453,B.S.E.S.SUB STN. (SWAMI SAMARTH NGR,19.1366269548,72.8237256225
542,MALVANI DEPOT/ GAIKWAD NGR.,19.1814156127,72.8191678308
899,HUTATMA CHK. ( O.C.S.),18.9332525186,72.8313236179
1576,SPECIAL STEEL/RAJENDRA NGR.,19.2213188545,72.8631724996
4971,"""M"" EAST WARD OFFICE(GOVANDI-W)",19.056338,72.921003
4160,E.S.I.S HOSP (THAKUR VILLAGE),19.1746739,72.9431038
310,VIDHAN BHAWAN,18.9253413092,72.8241747462
622,VILE PARLE STN.(E),19.0986894784,72.8447080298
5013,UNICHEM COMPANY,19.1407225553,72.8485468298
1504,AKSA VILLAGE,19.1808236649,72.7978352355
1949,SANGITA TALKIES,19.1898157753,72.8513652954
2060,GHODBUNDER VILLAGE,19.2865637342,72.8948756195
1850,GANESH MANDIR,19.0944275491,72.8999972341
5103,SAIKRUPA NAGAR,19.1959112811,72.8045202322
3562,SHANTI NGR.,19.2062750819,72.8346312863
3555,NAVJIVAN VIDYAMANDIR,19.1494837228,72.9273663131
4349,LIPI CO.,19.1120705975,73.0266274469
2835,RAMGAD (ANITA NGR.),19.1990706626,72.878863411
3443,HINDU CEMETARY,18.9773563528,72.8469324838
368,VIHAR LAKE,19.140106593,72.8984809219
686,NOORBAUG,18.9626480621,72.837152978
2276,HUTATMA CHK./MUMBAI UNIVERSITY,18.929088675,72.8297516822
4652,SANATAN DHARM VIDYALAYA,19.0437380411,72.8933342049
3740,MAHAVIR EDUCATION & RESERCH TRUST,19.139181921,72.8487184911
1027,MOHITE PATIL NGR.,19.0534126219,72.9352758743
4121,NERUL SECT.-42,19.0175499846,73.0170296051
2751,SWATANTRYAVEER SAVARKAR CHK-BHY(E),19.2953109743,72.8583478128
3035,KHALSA COLLEGE,19.0247648681,72.8580123683
3258,KANDIVLI STN.(W),19.2044241869,72.8513217177
1102,VITHALBHAI PATEL RD.JUN.,19.0714374815,72.8357055875
763,C & D SHED,18.9857186765,72.8486642526
5115,KETAKI PADA (DIAMOND INDUSTRIES),19.2551612157,72.8678562175
2020,TEMBIPADA NAKA,19.1544169411,72.9298574383
1164,JUMBO DARSHAN,19.1136474691,72.8531811789
4818,BHARAT DIAMOND BORSE,19.0670487664,72.8647740339
4736,RAHEJA COMPLEX,19.2277163337,72.8657019682
3147,MAHATMA PHULE MARKET,18.9464951482,72.8352296966
4085,SIDDHIVINAYAK MANDIR,19.0176205273,72.8306411547
4803,WALMIKI SOCIETY,19.2558981811,72.8525833435
1670,RANI LAXMIBAI CHK./ SION BARRIER,19.0470439892,72.8630744135
4350,L & T INFOTECH(MAHAPE),19.1110973983,73.0295456903
2896,SANJAY NGR.,19.1787853272,72.8659376687
1325,KANDIVLI VILLAGE,19.2048768987,72.8414676088
4541,VIDYA NGRYNORTH GATE,19.0730473768,72.8539580028
4351,NEW GOLDEN NEST,19.2970114214,72.8599377442
4683,SEEPZ VILLAGE,19.1304127588,72.8763252594
4904,FIRE BRIGADE/KHARODI COLONY,19.197260364,72.821147902
1466,JOGESHWARI STN-E,19.0898792,72.908696
4162,ASHOKVAN MUN.SCHOOL,19.2410091231,72.8680809337
4477,ASHOK NGR.,19.1192054971,72.8853703276
4070,BHAYANDER RLY.STN.(W),19.3109042267,72.8525849064
3631,MAHATMA PHULE BHAVAN (VIDYA NGRY),19.0698431525,72.8571981113
2663,SAMAJ MANDIR HALL/SECT.10(VASHI),19.0838311177,73.0012153048
3157,CHANDAN CINEMA,19.1160038861,72.827543165
72,SUBHASH MARG,19.1037649891,72.8533077716
4563,KANDIVALI STN.(W),19.2063086884,72.8510213103
1932,VIKAS NGR.SCTY.,19.1284744569,72.8601855525
3420,GOREGAON CHECK NAKA NO 1,19.1663606963,72.8574310457
107,P.MOHD.RAFI CHK.,19.0521364408,72.8380851949
5192,VAISHALI NGR/DHARKHADI,19.251059,72.873453
2944,4TH RD.( GOLIBAR ),19.0747360851,72.8426732214
1541,GROVEL CO.,19.2016519895,72.8590391445
2723,BHABREKAR NGR.NO 1,19.2046807414,72.8258480089
2686,RANI LAXMIBAI CHK.,19.0445326867,72.8640653968
4608,MILITARY CANTEEN/CIPLA,19.1146381831,72.9262355268
4316,KHERWADI,19.061039991,72.847697199
1896,GOTHIVALI VILLAGE/TEL.EXCH.,19.1354256601,73.0040539758
4244,BANDRA-WORLI SEA LINK TOLL PLAZA,19.0454214247,72.8287912523
215,DON BOSCO/KHALSA COLLEGE,19.0254282429,72.8570795406
1415,C.K.P.CLY.,19.2315446582,72.8469074624
4726,LOKSHAHIR SATHE UDYAN/SUMAN NAGAR,19.0537283689,72.8843201305
4555,COAL BUNDER,18.9859393883,72.8574896585
3263,AHILYABAI HOLKAR CHK.,18.9325084892,72.8276842149
1908,BHANDUP STN.(W),19.145138213,72.9351722828
1093,RIZVI COMPLEX(CARTER RD.),19.0650040193,72.8231529018
3887,KORA KENDRA(ON BRIDGE),19.2209272363,72.8545393993
103,BYCULLA STN.- E(GLORIA CHURCH),18.9755208563,72.8340546246
4761,JUBILEE MILLS,18.9939757717,72.8486658317
4704,GREEN PARK (MIRA RD.),19.2768215427,72.8780098892
1540,E.S.I.S.HOSPITAL,19.2021788505,72.8555630016
3472,MAHALAXMI STN.,18.9822179513,72.8234616312
1772,MAHESHWARI DHAM,19.0827721695,72.9094211025
4,COLABA DEPOT,18.9161355162,72.8271388444
4363,SARVODAYA NIKETAN,19.0817116458,72.8804603045
4143,M.H.B.POLICE STN.,19.2327523351,72.8407237295
307,PRATIKSHA NGR.DEPOT,19.0423689584,72.8729261348
4673,KURLA S.T.DEPOT,19.0563628253,72.8838935565
3349,SANTACRUZ STN RD,19.0825833195,72.8383058982
446,JASLOK HOSPITAL,18.9715018311,72.8094213258
1265,HANUMAN CHK.,19.1699701031,72.9589982321
727,KHODADAD CIRCLE/ DADAR POST OFFICE,19.0150656633,72.8457075146
3079,ACHARYA ATRE CHK.,18.9977604374,72.8179463045
1359,BLDG.NO 46,19.0605906058,72.848021414
1710,BAHAR CINEMA,19.1096889528,72.8539965915
2117,R.B.I.CLY.,19.1116201161,72.8611324845
5174,R.T.O.CAMP,19.1410329,72.8546762
2452,SARDAR PATEL NGR.(PARK STREET),19.1430124834,72.8199276145
3226,MAHARANA PRATAP CHK.,18.9683608823,72.8403761036
2100,SUMATI SCHOOL,19.1127145861,72.8252485462
359,MAROL MAROSHI BUS STN.,19.1190482464,72.8802714049
230,NADKARNI PARK,19.0138387513,72.8627834009
4642,CARDINAL GRECIOUS SCH/TEACHER CLY,19.0707993335,72.8470961497
525,OLD KHAR,19.0655773197,72.8372876844
4511,OUR LADY OF SALVETION SCHOOL,19.0172249471,72.835283327
1006,GOLDEN CHEMICALS,19.2586801738,72.8721116724
3122,PAREL S.T.DEPOT/SANT ROHIDAS CHK.,19.0093507981,72.8329134877
1215,PICNIC COTTAGE,19.1304774171,72.8142908832
399,PASSPORT OFFICE,19.0104572331,72.8204452136
1491,WAGHESHWARI MANDIR,19.1757905659,72.8734610112
837,R.B.I.BANK,19.057142447,72.8525770407
4786,KOHINOOR S.R.A. COLONY,19.0828834042,72.8851249727
1809,POLICHEM LTD./PEPSICO,19.0229269148,72.9046878789
1034,SHIV CENTRE,19.0737727336,73.0062301336
2161,RADHA MAHESHWARI CHK.,19.1836085324,72.8501072415
4677,SAMRAT ASHOK NGR.,19.0535062574,72.9142951084
1583,OTIS CO.,19.2002740376,72.875561552
1709,TARUN BHARAT SCTY.,19.107841319,72.8617074861
4096,MHADA CLY.(HIRANANDANI),19.1183492372,72.907673183
695,CENTRAL TALKIES,18.9550444951,72.8190811541
4229,BHOIWADA/MANE MASTER CHK.,19.0759837,72.8776559
3908,JAIN MANDIR,19.2848219296,72.9011412597
333,GHATKOPAR BUS STN./GKD,19.0879619559,72.9182232873
3282,WORLI SEA FACE (N),19.015185775,72.8193488788
3366,SARDAR NGR.NO 1,19.0357969886,72.8639568279
3559,MITH CHKY,19.1953325114,72.8337729794
353,RAJ KAPOOR CHK./ BHABHA HOSPITAL,19.0436724194,72.9214294134
971,BANGUR NGR.,19.1676973439,72.8351085442
3403,SOMPURI MARKET,19.0807863188,72.8398918857
434,E.S.I.S.HOSPITAL,19.1784778957,72.9445733087
679,CHIRA BAZAR,18.9493468285,72.8255130913
2571,NANCY CLY.,19.2397935748,72.8647549946
4600,S.B.P.T. COLLEGE,19.1071907237,72.8367550141
1316,EKTA NGR.,19.2006766822,72.8279707463
4886,BHATWADI,19.0949368091,72.8970091001
301,BEST CLY.,19.0054656339,72.847656552
262,MANEKLAL MUN.SCHOOL,19.0900592675,72.9026862563
4270,GOREGAON CHECK NAKA NO 1,19.1662961798,72.8578130983
3536,VAISHALI NGR.,19.1859040903,72.9468598869
3827,ELPHINSTONE STN.(W),19.0073128397,72.8351022902
396,WORLI DEPOT,19.0133802422,72.8200516175
1643,MILITARY OUTPOST,19.0794459001,72.8597927733
4532,CANARA BANK(BKC),19.0643112644,72.8633988411
2331,KADAM PADA,19.1786335215,72.9471658127
2019,NARDAS NGR.,19.1502641287,72.9276023475
2390,SANSKRITI APT.S,19.2124032593,72.8643747897
4415,WESTERN PARK,19.2696918382,72.8961740489
4957,AMBOLI NAKA,19.1249426698,72.8417071145
3143,M.I.D.C. ELECTRONIC ZONE,19.1072045441,73.0230654733
875,ALANKAR CINEMA,18.9581225321,72.8267349573
3005,SANTOSH NGR.EXTN.,19.1646838217,72.8798124821
1326,MAHATMA GANDHI SWIMMING POOL,19.2057279642,72.8424332041
1632,DOMNIC SCHOOL,19.1282471411,72.8648795078
291,SINDHI CLY.,19.1441340014,72.8405725768
4332,S.V.P.VIDYALAY,19.2009349053,72.8477513916
4147,ADARSH MARKET,19.0136955074,73.0179308273
3869,ESTRELLA BATERY,19.0404529984,72.8551554262
3920,WAGHBIL,19.2534055076,72.9719730354
2707,SHIV BHAVANI,19.2578310681,72.863552846
1105,SIKKA NAGAR/GANPATI MANDIR,18.9512196,72.8311187
1470,THAKUR NGR.(CAVES RD.),19.1355452138,72.8571523146
3780,HARI OM NGR. (SOHAM SALES BLDG.),19.1766178121,72.970585375
412,BHANDUP STN.RD.(W),19.1457732349,72.9355280396
3049,DR.DATTA SAMANT CHK./SAKI NAKA,19.1037879245,72.886461069
328,VIKHROLI VILLAGE,19.1045377361,72.9304701388
3048,MORARJI NGR.,19.1296402333,72.8963851993
2637,NANA CHK.,18.9619309944,72.8127918037
67,GUJRAT SCTY./DAYALDAS RD.,19.0971751766,72.8504968165
430,MULUND RLY.STN.(W),19.1724764101,72.9560905875
213,WADALA GATE NO 4,19.018494427,72.8601142882
2748,K.C.CO.,19.1543331005,72.9301468493
265,BARVE NGR.,19.097813788,72.9032588002
2703,NANEPADA JUN.(MITHAGHAR MG-MULUND-E,19.1565109,72.9637728
1044,SHIVAJI CHK.(NERUL),19.0441618504,73.0229885756
3693,BHUMI COMPLEX,19.201598435,72.8195868795
3166,THAKURDWAR,18.952237024,72.8234544624
4110,ANIRUDDHA BHAVAN,19.0548729271,73.016643367
1052,RANI LAXMIBAI CHK.,19.0407367708,72.8625917179
645,B.S.E.S.,19.0833696287,72.8463147449
15,DR.M.IQBAL CHK.,18.9618113458,72.8320368584
4743,SANJAY GANDHI UDYAN(NATIONAL PARK),19.2310689644,72.8646902729
4840,ASHIRWAD SOCIETY,19.114251925,72.8983565374
1952,SUHASINI PAWASKAR MARG,19.2492427868,72.8731272226
2724,BHABREKAR NGR.NO.2,19.2054908857,72.8242064606
4298,RAJ PARK,19.2063557111,73.0092679661
584,SAHAR P.& T.CLY.NO 2,19.1028779235,72.862578083
1892,MAHAPE NAKA,19.1136925835,73.0088604944
2011,MILIND NGR.,19.0880317149,72.9037809333
1077,NATIONAL ASSO.FOR BLIND(NAB),19.0074369228,72.8144064246
735,MAFATLAL MILL,18.9773033667,72.8414704516
680,PRINCESS STREET,18.9453655145,72.8277857283
4148,DHARAN TALAO/ASHTAGANDHA STY.,19.0121131172,73.0178020813
54,N.M.JOSHI MARG POLICE STN.,18.9863670871,72.8316745739
3735,OSHIWARA MUNICIPAL HOSPITAL,19.1451682765,72.846245932
4410,NEELKAMAL NAKA,19.2775913006,72.8804241175
4498,HOTEL SANVERSE,19.2643609648,72.7951272981
4767,HUTATMA CHK.(SIDDHARTH COLLEGE),18.9352354023,72.8331360392
4634,GOREGAON STN-E,19.1648676894,72.8505483072
1916,KRUPA BUILDING,19.087954742,72.9045069963
86,NAV SCTY.,19.1003585957,72.8530610084
2613,DHARAVLI VILLAGE,19.1723925938,72.7969769286
5067,KANDER PADA BUS STN,19.2597470085,72.8531633843
3415,SWAMI VIVEKANAND VIDYALAYA,19.2255525585,72.832637456
2096,MORA VILLAGE,19.1179161273,72.8218204743
1725,FIRE BRIGADE/AGRI.INDU,19.1657701423,72.8610385911
1400,BHAVANS COLLEGE,19.1248208129,72.8381799524
3358,KANDIVLI STN.(W),19.2039586596,72.8503251862
2608,KANNAMWAR NGR.-1/PRAVIN HOTEL,19.1139657366,72.9343754352
4502,GORAI CROSS CIRCLE,19.2413078132,72.7840980546
514,SAIDHAM,18.9579684073,72.8170568923
2615,VYAS WADI,19.154718372,72.7886513518
3331,PODDAR HOSPITAL/SIDDHARTH NGR.,19.0012684648,72.8156367015
2251,DUMPING GROUND/NIRANKARI BHAVAN,19.067945337,72.9240103558
1780,TAGORE NGR.POST OFFICE,19.1152609034,72.931056108
1038,TURBHE NAKA (JANTA MARKET),19.0720240771,73.0190854002
28,CHITRA CINEMA,19.0136151515,72.844661453
39,PILOT BUNDER,18.9038658512,72.8156280994
386,HINDUSTAN CO.,19.1217191255,72.9254759738
1202,P.W.D.OFFICE,19.1272797609,72.8945099741
3700,SHREE SAIBABA COMPLEX,19.1686971551,72.866524193
3044,KAMANI,19.0844019325,72.8846382677
3408,ANDHERI BUS STN.(W),19.1197700004,72.8458790589
3868,KAMRAJ VIDYALAYA,19.043495524,72.8574728548
1948,ORDNANCE FACTORY,19.192171,72.855732
3913,BHAYANDER PADA,19.2835864523,72.9524894691
4662,AZAD NGR.,19.0802660587,72.8687933009
3251,WADALA CHURCH,19.0186376332,72.8562330808
5073,SIDDHIVINAYAK MANDIR,19.0144961325,72.8307805952
3905,SARASWAT BANK,19.2120230723,72.8416686002
1919,MHADA CLY.(CHANDIVLI),19.113407431,72.9023324585
5037,SHANTI BAUG,19.0608512918,72.8968941533
4413,ST.XAVIER'S HIGH SCHOOL,19.2704615461,72.8917108531
3380,ANUSHAKTI NGR.BUS STN.,19.0425405932,72.9262390529
3892,HIRADEVI MANDIR,19.1639610913,72.7904537963
1485,SWATI STUDIO,19.1627242878,72.8527155321
2495,FANTASY LAND,19.1396853545,72.8603178312
3120,HUTATMA CHK. (PAY & PARK),18.9287433664,72.829677513
114,NANAVATI HOSPITAL,19.0933992552,72.8395178434
1271,MODERN BAKERY/RESERVIOR,19.1427469326,72.8787264525
5108,CHHEDA NAGAR,19.0683195046,72.9035592584
4058,LOKMANYA NGR.(THANE),19.1935475557,72.944451364
4811,DHANMILL NAKA,19.0011315434,72.8310996779
2719,GOVERDHAN NGR./ BORSAPADA,19.2126295735,72.8489579115
2772,MERCHANT BROTHERS,19.2062001047,72.8225327622
2204,J.V.G.FINANCE,19.1179447619,72.8718945003
1851,BABU GENU MARKET,19.0891191121,72.9051724635
1623,SANTACRUZ STN (E),19.0806793114,72.8428488305
940,RAJA SHIVAJI H.SCHOOL-HINDU CLY.,19.0209030846,72.8486633089
1704,KONDIVTE CAVES/MAHAKALI CAVES,19.1303347378,72.8729394859
3168,MUSTAFA BAZAR/SAVLYA TANDEL CHK.,18.9758525258,72.8405370429
4364,NAVJEEVAN SCTY.,19.072464326,72.8784218256
350,DEONAR DEPOT,19.0457818689,72.9131038366
3796,B.S.E.S.,19.1337006797,72.8816366493
1955,URAN PHATA,19.0391919556,73.0288720635
1447,INDIAN EDUCATION SCHOOL,19.2128982492,72.8241334737
49,BND RECLAMATION BUS STN.,19.0479973563,72.8270317232
3476,SHRAWAN YESHWANTE CHK.,18.988135632,72.841440223
5120,SAROTAPADA (ANDHERI-W),19.1304910711,72.8376051433
901,AHILYABAI HOLKAR CHK.,18.9328656479,72.8279718602
3969,BANK OF INDIA,19.1271996361,72.8345086795
1193,CANOSSA SCHOOL,19.1240522787,72.864302657
4152,HIRANANDANI GATE(THANE-W),19.2486272646,72.9782482644
3989,VANITA SAMAJ/CHAYTYABHOOMI,19.0254938278,72.8358665795
5021,MALAD DEPOT,19.1836494573,72.835731288
2265,BORIVLI STN(E),19.2300920253,72.8577211963
4072,EKTA BHOOMI COMPLEX,19.2106404562,72.8386360686
1117,BIRLA KRIDA KENDRA,18.9533570195,72.815684747
4346,D.A.K.C.GATE NO.2,19.1123544462,73.0167569177
3501,PUSHPA PARK,19.1885447096,72.8580961715
4243,BEHRAM BAUG,19.1465120747,72.8365325605
3822,SHIVRAJ BHAVAN,19.0059028361,72.8336270753
4215,ACHARYA ATRE CHK.,18.9985411959,72.8171637355
123,JOGESHWARI TEL.EXCH.,19.1431894578,72.8428991995
3056,LOKSHAHIR SATHE UDN./SUMAN NGR.,19.0550937966,72.8852502655
1401,SHAHAJIRAJE SPORT COMPLEX,19.1269697751,72.8369568651
3159,A.H.ANSARI CHK.,18.9701145153,72.8324946062
3798,BHAKTI PALACE,19.2556728193,72.8494609254
3849,R.C.F.CLY.(SHRIKRISHNA SOC.,19.1515411602,72.9455174463
576,KHEDGALLI/SIDDHIVINAYAK MANDIR,19.0759837,72.8776559
1231,SHASTRI NGR.,19.2179545466,72.8518026131
4493,SALSAR NGR.,19.2950664545,72.8180011766
3022,B.H.E.L.CO.,19.1200735396,72.8742333866
4899,HILL GARDEN,19.2400000176,72.9772825956
4990,RUBY CO.,19.1998684512,72.8278262738
2717,JAWAHAR NGR.,19.159960903,72.8436671533
4459,SHIVAJIRAJE COMPLEX,19.2016374282,72.8233794999
4888,BABU GENU MARKET,19.0966377368,72.9010701177
2056,MADHUSHREE MIRA RD ),19.2730569569,72.8686680642
1032,VASHI BUS STN.,19.0749324134,72.9976831764
3363,N.L.COMPLEX/RIDDHI SIDDHI SOC.,19.2610772179,72.865602581
898,SAIBABA RD.,18.9943754413,72.8448180513
2592,BHANDUP STN.(W),19.1450247087,72.9343736868
16,NEW NAGPADA,18.9681527406,72.8329718705
2604,SHIMPOLI NAKA,19.2233608473,72.8532037419
4516,MPSC/UPSC TRAINNING CENTRE,19.0686390052,72.8500981461
1681,KAMANI OIL INDUSTRIES,19.1131438589,72.8902517891
3705,SARVODAYANGR.,19.1479079026,72.930110241
4424,NARENDRA APT.,19.0780588035,72.8288948288
1018,NERUL BUS STN.,19.0396183432,73.0192978559
2272,JAWAHAR NGR.,19.1600419792,72.8461562433
1245,RANI LAXMIBAI CHK./ SION BARRIER,19.0477663512,72.8635054587
4139,JUINGR.SECT.-25,19.0482313994,73.0173369829
1370,BABHAI NAKA,19.2285663774,72.8484094995
2729,MAYUR NGR.,19.1556649078,72.8841616669
3052,POLICE CAMP,19.0077609067,72.8158529316
1228,BALBHARATI,19.199981874,72.8486867725
922,ST.PETER'S CHURCH,19.0549136361,72.8293491518
341,SAMRAT ASHOK NGR.,19.0552785652,72.9103849747
2173,BHAGATSINGH NGR.,19.1559413149,72.835156885
1653,ORDNANCE DEPOT ( REAY RD.- E ),18.9808058528,72.8512883912
4719,ELIA SARVAT JR. COLLEGE,19.187839147,72.824910024
1311,L.I.C.OFFICE,19.242895659,72.8518545943
1792,DEONAR MUNICIPAL CLY.,19.0504496087,72.9197863012
4251,BHANDUP PUMPING CENTRE,19.1548575611,72.9566691111
1497,MALVANI AKASHWANI,19.1966307599,72.811739807
2691,JAMBLI MOHALLA,18.9556244943,72.8298529061
1467,JOGESHWARI POLICE STN.,19.1417305265,72.8546312931
4518,WADALA GATE NO.4/SIWS SCHOOL,19.0209908336,72.8593229856
1029,VASHI VILLAGE,19.0689295804,72.9867397636
2942,AMBEWADI (GOLIBAR),19.068915767,72.8424157294
5201,BABU GENU MARKET,19.0891191121,72.9051724635
348,BASANT TALKIES,19.0457818689,72.9064519583
3533,ST.LOWRENCE HIGH SHCOOL,19.2394459579,72.8471291916
5000,CHIKOOWADI,19.2199992655,72.8413890841
4756,GOKULDHAM,19.1740072779,72.8682622644
643,VANRAI/ MHADA CLY.,19.1564222138,72.8570573579
5196,STATE BANK (NERUL),19.0377556,73.0268761
2856,AJARA BANK,19.2321169815,72.8257066279
1954,C.B.D. BELAPUR BUS STN.,19.0229193414,73.04959821
1793,DEONAR FIRE BRIGADE CLY.,19.0523155854,72.9166963964
3577,GHATKOPAR STN.(W),19.0834176421,72.9049946549
4817,ICICI BANK,19.0672570029,72.8654160341
3402,P.MOHD.RAFI CHK.,19.0521364408,72.8380851949
4046,BRAMHALA TALAO/MANORPADA,19.204034314,72.9727397177
663,MAHANT RD./PARLE(E),19.1024346371,72.8518260083
264,JAMBHULPADA,19.0938816843,72.8997360802
2895,GEN.A.K.VAIDYA MARG JUN.,19.1737460623,72.8595460099
1426,JEEVAN NAGAR,19.1315126,72.8334541
2355,GANESH MANDIR,19.2696338085,72.8715004769
296,GOREGAON DEPOT,19.1541981254,72.8354572924
20,JAIHIND CINEMA,18.9855509964,72.8356015161
1260,POSTAL CLY.,19.0607766734,72.8925115169
400,BABASAHEB WORLIKAR CHK.,19.0130353629,72.8236618709
2648,HUTATMA CHK. ( O.C.S.),18.9294499818,72.8313215794
5116,ICICI BANK(DAHISAR-STN(E),19.2554448178,72.8604318629
4397,GANDHI NGR.,19.1249497184,72.9300699448
1453,SUVIDHYA SCHOOL,19.2299456087,72.8285928703
959,P.THAKRE NGR BUS.STN.,19.220673614,72.8286804114
407,DOCKYARD CLY.,19.131452483,72.9269908319
4791,KAMRAJ VIDYALAYA,19.0436376871,72.8576077251
4772,GOREGAON STN.(E),19.1656725803,72.8506308474
5161,BHOIWADA/TATA ANNEX,19.0759837,72.8776559
2005,MHADA CLY.(MAJAS),19.1341894364,72.8665188435
1294,PAI NGR.,19.2353781922,72.8551922326
607,AMAR BRASS & STEEL CO.,19.0727404138,72.8669367944
2,SASOON DOCK/COLABA FIRE STN.,18.915655,72.825845
989,WORLI SEA FACE (S),19.0003834221,72.8111999671
469,JUHU BUS STN.,19.1074884012,72.8267706888
610,BUDDHA NGR.,19.0738125345,72.8802753002
3125,PAREL S.T.DEPOT/SANT ROHIDAS CHK.,19.0093448479,72.8318750602
251,SARVODAYA HOSPITAL,19.0885918901,72.907039281
2806,KHINDIPADA (DARGH),19.1665259035,72.9304744828
3483,KALA NGR.,19.0545892908,72.8463937232
185,B.D.PATIL MARG/ HPCL,19.0260812444,72.8975950422
4835,SASOON DOCK,18.9140873797,72.823998701
3199,BORIVLI STN(E),19.2287548328,72.8574637042
3714,COOPERGE TEL.EXCH./Y.B.CHAVAN PRAT.,18.926845494,72.8280106933
4614,BUSA UDYOG BHAVAN,18.9981865291,72.850179386
1063,NATIONAL(HINDUJA)HOSPITAL,19.0335801122,72.8387207856
3133,VASANTRAO NAIK CHK.,18.9686597176,72.816105363
870,AZAD FLOUR MILL,18.9867243161,72.8388473061
676,LOHA BHAVAN,18.953835369,72.841736074
4061,LODHA COMPLEX,19.2890615131,72.8561457642
3914,OVALE VILLAGE,19.2749581053,72.959892366
567,EVERSHINE NGR.,19.19362,72.83436
2315,KRANTI NGR.,19.1083279289,72.8651407136
4491,MURDHA GAON,19.2993003236,72.8352428116
4060,GANGA COMPLEX,19.2872387217,72.8561672218
4099,KENDRIYA VIHAR(SECT.-12),19.0373350724,73.0655295235
4961,NAHUR STN.(E),19.1570400953,72.9477264512
1489,"SESSION COURT,DINDOSHI",19.175614,72.867057
3600,BHAYANDER MARKET,19.3086466044,72.8543352281
2001,RAMESH HOTEL,19.1872237655,72.8626040318
4218,SHREE KRISHNA NGR.,19.2354545388,72.8630764258
3071,OMKARESHWAR MANDIR,19.2299981772,72.8631236696
2975,HANUMAN NGR.,19.1736547404,72.8743455979
3944,SAIBABA MANDIR(GHATKOPAR),19.0699759328,72.9007790251
2726,PRASANNA JEEVAN SCTY.,19.2305316436,72.8479374307
4561,SAI KUTIR,19.2140694722,72.8455344617
4672,AMBOLI NAKA,19.1275881034,72.84692753
344,TROMBAY,19.0335852151,72.950019518
2996,KALA NGR.,19.0530860673,72.8477919798
4252,VEER KOTWAL UDN.,19.0214676544,72.8420903878
1058,DHOBI GHAT(TROMBAY),19.0346400072,72.948646227
2574,AIROLI SECT.NO.4/ CORPORATION BANK,19.1524970882,72.9996656579
3575,M.H.B.CLY.,19.1341634402,72.8629645911
4611,R.C.F. CLY.(BHANDUP VILLAGE-E),19.1491989625,72.9485351316
2815,VASANTRAO NAIK CHK.,18.9691397408,72.8157207947
4715,GANDHI NGR.,19.1206887492,72.9257306388
4280,ROYAL COMPLEX,19.2708907608,72.8747011328
2980,GURU NANAK SCHOOL,19.1036920311,72.9150334019
2702,HELAN KELAR INSTITUTE,19.111796393,73.0061804146
2356,SHANTI NGR.GATE ( MIRA RD ),19.2808522496,72.8575716967
338,DR.AMBEDKAR GARDEN/CHEMBUR STN.,19.0615553318,72.9017346991
1035,A.P.M.COMPLEX,19.075576091,73.0117406488
3273,SALASAR HANUMAN MANDIR,19.1938395688,72.8320252225
4273,BHAKTI VEDANT,19.2699578966,72.8703217351
3729,S.R.A.RAM MANDIR/SOMANIGRAM,19.1494251027,72.8484775299
625,NATRAJ STUDIO,19.1177142493,72.8531575679
2905,AAMCHI SHALA,19.0651426124,72.8962759638
4905,NELCO,19.1119083981,73.0272282617
1281,NEW INDIA QTRS.,19.1134400214,72.8369886323
3709,JIJAMATA BHOSLE MARG JN.,19.0707750064,72.9072529376
1422,FILMALAYA,19.1278388475,72.8440873433
2059,GHODBUNDER VILLAGE MARG,19.2822478828,72.891593672
4439,GANDHI NGR.(THANE),19.2199016742,72.9638930082
3444,S.K.PATIL GARDEN,18.9497842282,72.8209175722
2790,MULUND RLY.STN.(W),19.1727514476,72.9558198718
3998,TECHNICAL SCHOOL,19.2418941836,72.8543938023
4362,MAGAN MATHURAM MUN.SCHOOL,19.0861526093,72.8810396616
1903,AIROLI SECT.NO.4/ SAI CLINIC,19.160765407,72.9953922284
985,DAULAT NGR.,19.0846386594,72.8321802907
581,CHAKALA CIGARETTE FACTORY,19.1073791456,72.8591019401
3359,KALA MARUTI MANDIR,19.2050883531,72.8464144748
1011,SILVER PARK,19.282012,72.8739480817
4940,GURUNANAK VIDYALAYA,19.129954026,72.8650886306
2746,VAKOLA POLICE STN(HANUMAN MANDIR),19.0771202561,72.8470850467
4688,MARATHON CHK.(TEEN HATH NAKA),19.1888118017,72.9633136026
1464,SAMARTH NGR.,19.1354211265,72.855553463
4468,BORIVLI MARKET(E)CARTER RD.,19.2340499828,72.8590752937
578,NEW AGRIPADA,19.085541315,72.845785583
3003,NEIGHBOUR HOOD SCTY.,19.1990301341,72.87951787
201,DR.AMBEDKAR GARDEN,19.0617000214,72.9004992502
3737,CENTRAL WAREHOUSING CORPORTION,19.147560221,72.8482200379
1145,SUNDER GALLI,18.9755912218,72.8309915282
1232,KORA KENDRA,19.2203049109,72.8527038354
4619,CHARNI RD.RLY.STN./PARSHI AGYARI,18.9502763749,72.820440139
907,MHATRE PEN CO.,19.016204167,72.8399658843
1901,AIROLI SECT.NO 17,19.1537724724,72.9929031384
785,ABHYUDAYA BANK,18.9889751369,72.8411403416
3612,MAHAVIR NGR.EXTN.,19.2164874909,72.8393734318
1558,IRANI WADI MARG NO.4,19.2015428243,72.8398978836
3993,ST.PETER'S CHURCH,19.0556843474,72.8298212205
4712,JACKERIA BUNDER,18.9971513066,72.8507557901
3083,A.H.ANSARI CHK.,18.9711812627,72.8321525124
3342,GALAXY VIEW BLDG,19.0258144668,72.8684356085
3206,BORIVLI STN(E),19.2290790017,72.8575817214
4067,MIRA-BHAYANDER MUNI. HEAD OFFICE,19.3008180299,72.8468402879
79,VAKOLA POLICE STN.,19.0809465335,72.8468108817
3656,LAXMI TOWER(BKC),19.0682456878,72.8645146401
570,FIRE BRIGADE/KHARODI CLY.,19.1959822935,72.8214386748
3958,NITIN CO.JUN.,19.1989476342,72.9635740937
3697,VIRWANI EST.,19.1696294791,72.8585633966
2614,RETREAT HOTEL,19.1598262546,72.7859906005
29,KHODADAD CIRCLE,19.0165828703,72.8468455985
1463,SADBHAKTI MANDIR,19.1280671153,72.8496960285
343,SHIVAJI NGR.JN.,19.0626420708,72.9183238093
3432,ANDHERI STN.(W) (M.A),19.120405076,72.8463059931
1562,SAIBABA MANDIR,19.2171092302,72.8478539776
1109,PRARTHANA SAMAJ,18.9575540836,72.8192702163
1008,TRANSPORT CORPN,19.2681321557,72.8778277392
4670,ANAND HOSPITAL,19.2571277588,72.8649429428
3162,A.H.ANSARI CHK.,18.9708841588,72.8324774857
4978,CENTRAL TALKIES,18.9552332737,72.8187379167
4248,SHANTI NGR.(KALINA),19.0738180038,72.8501385372
4290,THANE CIVIL HOSPITAL,19.1988442121,72.9792686612
1199,NAMASKAR,19.1380809136,72.8705682972
749,MOTI CINEMA,18.9581138708,72.8265664818
1181,PUNCHKUTIR/GANESH MANDIR,19.123783,72.9097
3653,FREE PRESS HOUSE,18.9228243562,72.8235701309
2594,ASHMITA COMPLEX,19.2858081631,72.8615475798
4312,GAWANPADA FIRE BRIGADE(MULUND-E),19.1722806178,72.9669375708
2860,ANKUR PALACE,19.2223310601,72.8479187745
13,MINARA MASJID,18.9569796797,72.8324043229
2040,KHAR STN (E),19.0673492187,72.841798409
634,HANUMAN RD.,19.1018477555,72.854568268
1984,SANPADA STN.,19.0676076157,73.0095775305
371,E.S.I.S.LOCAL OFFICE,19.1171559222,72.8892968518
2720,PUNCHASHEEL APT.,19.2140762849,72.8404463154
4232,JUHU SHOPPING CENTRE,19.1167917601,72.8301645823
3170,"DR.AMBEDKAR UDN., POWAI",19.126576,72.893884
908,DADAR STN.-W,19.019276751,72.8426513966
2572,RAWAL PADA(BORIVLI-E),19.2463776868,72.870779236
184,CALICO CHEMICALS,19.0230080581,72.8979930852
3597,SALSAR NGR.,19.3097603891,72.8585409319
411,JANATA MARKET,19.1418162799,72.9324362462
3008,KHODADAD CIRCLE (BHAVE CHK.),19.0166074522,72.8467696693
3706,YELLOW GATE,18.9601264678,72.8433507639
3916,KASARVADAVLI,19.270623506,72.9647847152
5117,NEW MHADA COLONY,19.1392313884,72.8241332029
4126,MAHARASHTRA STATE CO-OP BANK,19.0696780735,73.0022667267
1101,14TH RD/KHAR,19.0722946932,72.8330064331
4571,TALATHI OFFICE(HARIDAS NGR JN.),19.2237442843,72.8479946511
4344,DHANMILL NAKA,19.0093196518,72.8307235197
355,MANKHURD STN.RD.,19.04264,72.93041
1607,RAJSHIV BLDG.,19.2442311244,72.8685974633
3097,MAHARANA PRATAP CHK.,18.9682238988,72.8403624352
2684,RANI LAXMIBAI CHK.,19.0437547562,72.8643269827
3128,JOHAR CHK.,18.9581873335,72.8319085355
871,NAIGAON POLICE CLY.,19.0079662087,72.8471846798
397,VAISHALI NGR.,19.187120037,72.9457135417
3392,YASHODHAM,19.0847704682,72.8325879865
2577,SHEETAL SAROVAR,19.2834992447,72.863693347
3733,UNICHEM COMPNY,19.1427762974,72.8479196304
1711,VILE PARLE RLY CROSSING ( E ),19.0967631935,72.8440213843
4451,RAJKUMAR,19.1266352687,72.8385268514
931,MAHIM PHATAK,19.0433657726,72.8452337428
1760,AMAR MAHAL,19.0632675102,72.9026792267
3024,P.THAKRE CHK.,19.0190333155,72.8363535698
303,T.B.HOSPITAL,19.0050319463,72.8514010141
1548,ANITA NGR.,19.1999217581,72.8786488343
2859,HARIDAS NGR.,19.2208317121,72.8479187745
366,MAROL VILLAGE,19.1122493277,72.8789826118
1408,HIGHLAND GARDEN,19.1465824944,72.8287795966
4606,UDAY SHREE MARG,19.1504354503,72.9462820761
2701,MITHAGAR,19.1650854875,72.9638905813
3532,M.T.N.L.HOSTEL,19.2378259725,72.8532013659
1926,VIKHROLI STN.(W),19.1111411276,72.9271827939
290,BANDRA CLY.BUS STN,19.0587813299,72.8493964627
4581,GARDEN COURT CIRCLE,19.2602866297,72.9767047428
128,OSHIWARA DEPOT,19.1509965982,72.8358283704
4261,HARISH ENTERPRISE,19.1275148341,72.8552530556
4433,PAWAR NGR.BUS STN.(THANE),19.2395137964,72.9699011564
3396,ACHARYA VIDYANIKETAN,19.0276369934,72.8894176551
456,DR.RAVINDRA KULKARNI CHK/SASMIRA,19.0087936619,72.8193508723
484,MARATHON CHK.(TEEN HATH NAKA),19.1880886814,72.9635324596
1095,SHERLEY VILLAGE,19.0702769145,72.8224447986
2171,INDIAN HUME PIPE CO.,19.0175694919,72.8699535558
4873,DADAR STN (E),19.0177366618,72.8441282756
478,AMBIKA NGR.,19.1644762999,72.9477460154
2250,SHIVAJI NGR.DEPOT,19.0654305571,72.9292031125
1537,MALAD STN-E,19.1887204672,72.8499863179
1049,GRANT RD BRIDGE,18.9621488668,72.815833805
4366,AAKASHGANGA SOC.,19.0397005347,72.8607675504
5189,SHITALADEVI TEMPLE,19.0347321062,72.8423390369
3158,SAIBABA MANDIR/KOKAN BANK,19.0648175713,72.9194860563
5053,NEHRU NAGAR(DHARAVI),19.0469032664,72.862199667
1664,FLORA HOTEL/WATUMAL ENGG.COLLEGE,19.0027656095,72.8139289914
4053,KISAN NGR.JUN.,19.194479739,72.9497728667
4655,M.I.G.CLY.,19.0634688317,72.8509561679
635,BAHAR CINEMA,19.108984816,72.853452469
5182,BANDRA COLONY,19.0607283377,72.8500831082
1836,AMRUT NGR.,19.1009471457,72.9122858388
2048,SRUSHTI,19.2701604514,72.8687538949
2605,GOREGAON CHECK NAKA NO 3,19.1359010658,72.8885715274
4566,SUPERNOHA INDL.EST.,19.2067826111,72.8212765685
5019,BAJAJ BHAVAN,18.9253789985,72.8245446926
835,KAPADA BAZAR,19.0301784216,72.8400079032
2307,BAYER HOUSE,19.1195700949,72.9124726245
4347,CHH.SHIVAJI MAHARAJ VIDYALAYA,19.1051364281,73.0179585473
2115,AMBASSADOR HOTEL,19.1063823964,72.8748815326
1382,TATA UNISYS,19.1155119233,72.8682072614
1733,UNIT NO 10 ( CENTRAL DAIRY ),19.1578616081,72.8698279419
3978,SHANKESHWAR BLDG.,19.0742832745,72.9035886169
4309,SWASTIK PARK,19.255510464,72.9811150801
5164,C.A.INSTITUTE-BKC,19.0637072,72.869303
2766,N.SUBHASHCHANDRA BOSE KRIDANGAN,19.2121230086,72.8456105147
1633,TOLANI COLLEGE,19.1298935546,72.8658074626
1804,R.C.F.HOSTEL,19.0390901609,72.8943609663
2428,TOLANI COLLEGE,19.1284947298,72.8649777659
2381,NAVRANG TALKIES,19.1239332158,72.8424418577
719,UMERKHADI,18.9624201431,72.8348263558
1127,VATSALABAI DESAI CHK.,18.9763337385,72.8121751698
178,CHEMBUR CLY.,19.0461469632,72.8932340323
1826,BAINGANWADI,19.0573775594,72.925258119
4583,SWASTIC REGALIA,19.2622110033,72.977155354
418,SUBHASH NGR.,19.159583208,72.9450916077
3843,JAY MAHAKALI MANDIR,19.2427238655,72.8641612048
769,GODREJ FOODS CO./VEG.OILS,19.0096571075,72.8614593278
4962,DR.K.B.HEDGEWAR CHK,19.1639315486,72.9376842606
2836,I.E.S.VIDYALAYA,19.1766380791,72.9655378152
615,VERSOVA VIEW,19.1248867696,72.8228774187
78,PAREL S.T.DEPOT/SANT ROHIDAS CHK.,19.0093130135,72.8332019328
560,JAWAHAR NGR.,19.1593174684,72.8478112337
165,NEHRU NGR.,19.0620206434,72.8834356761
1389,BORIVLI STN(W),19.2308168048,72.8560586906
4299,PARSIK NGR.,19.2081388749,73.0117999715
1183,PINKY CINEMA,19.1232599226,72.8479708621
3773,SHANTI SUDHA PARK JAIN MANDIR,19.0752869437,72.9075828859
1783,TAGORE NGR.BLDG. NO 5 / A,19.1079167087,72.930709087
752,WILSON COLLEGE,18.9574431694,72.8103568204
2062,BHAYANDER PHATAK (POLICE CHKY),19.0759837,72.8776559
1186,PARSI PANCHAYAT / DHOBI GHAT,19.123868128,72.8497733066
288,GANDHI NGR.,19.0586861966,72.8478099296
4998,DON BOSCO SCHOOL,19.2304366783,72.8403614498
3696,DUDHSAGAR SCTY.,19.1679472385,72.8584775659
2392,GOKUL GARDEN,19.2111647038,72.8645008535
4602,DR.COOPER HOSPITAL,19.1071096216,72.8346736199
4228,LAL BAHADDUR SHASTRI COLLEGE,18.9835045295,72.8583479654
2847,SUNDER NGR.,19.2854260368,72.8700574891
4199,ACHARYA ATRE CHK.,18.9980542639,72.8170993625
384,CIPLA CO./MILITARY CANTEEN,19.1143798683,72.9261626193
2893,NIMBORPADA,19.1631716731,72.8880570504
1356,KHERWADI,19.0609929024,72.8468276844
1854,RAM BHAVAN,19.0905588252,72.9039064608
197,CHEMBUR NAKA/SWAMI VIVEKANAND CHK.,19.0540567684,72.8948291035
3462,"S.R.A.CLY.,MANKHURD(LALLUBHAI COM",19.0759837,72.8776559
3256,WADALA STN.(W),19.0171567227,72.8584217633
2312,OM NGR.(WARE HOUSE),19.1030486418,72.8663079566
4855,PUNJAB DAIRY,19.2822210033,72.8922014032
1166,J.B.NGR.,19.1121057718,72.8670056318
1473,VILE PARLE POLICE STN.,19.0950396565,72.8539348288
4617,SAIFEE HOSPITAL,18.9518984107,72.8186337563
4077,BHANDUP PUMPING CENTRE,19.1444914922,72.950355082
3137,THAKURDWAR,18.9516251174,72.8227732398
4014,AHILYABAI HOLKAR CHK(ONLY SUN/HOLI),18.9320688943,72.8281315621
452,ACHARYA ATRE CHK.,18.9983425952,72.8174326012
4049,VANDANA S.T.TERMINUS,19.1922607286,72.9695639822
476,DR.K.B.HEDGEWAR CHK.,19.1637929814,72.9376023082
4339,VASTU ANAND,19.2095978128,73.0142890614
3522,KASHI VILLAGE,19.2757396043,72.8880815302
3926,TATWADNYAN VIDYAPITH,19.2227454015,72.9775257529
639,ISMAIL YUSUF COLLEGE,19.1307996022,72.8551690828
4409,MALAD STN-W(SAINATH MARG CHKY),19.1899027973,72.8475526618
4504,JUIPADA/GLOBAL PAGODA(VIPASHYANA),19.2414698853,72.7924665467
1667,DAINIK SHIVNER,18.9958655,72.8226988
2912,SHIVAJI NGR.JN.,19.0621602527,72.9173325197
3213,ANTOP HILL SECT.7/ CPWD OFFICE,19.0261390342,72.8670408598
2755,R.C.F.CLY.(BHANDUP VILLAGE-E),19.1512573788,72.9475559251
1757,NARAYAN GURU H'SCHOOL,19.0604383004,72.9105541924
4209,WORLI SEA FACE (S),18.9964514359,72.8124645053
2242,SHANTI NGR.,19.0199628127,72.8745485078
277,JACKERIA BUNDER,18.9886707871,72.8456947325
2163,SIR.A.JUNG MARG/RANI SATI MARG,19.1808525206,72.8580841607
3074,BORIVLI STN(E),19.2295145634,72.8576166148
4034,KALAMBOLI CLY.,19.0231701229,73.1000345208
2767,MILLENNIUM BUSINESS PARK,19.0959309704,73.0201043145
4702,PLESENT PARK (MIRA RD.),19.2746745369,72.8765507675
617,TELEPHONE EXCHANGE,19.1341537631,72.825656813
4497,TALAVLI(UTTAN),19.2784586589,72.7971872346
4423,GAZDAR MUNICIPAL SCHOOL,19.0757875297,72.827178215
1250,GURU NANAK NGR.,19.0851340399,72.8926981135
3544,VEEJ BHAVAN,18.9214466078,72.8264450609
1285,SUNDER NGR.,19.1760148877,72.845600216
1612,NAHUR VILLAGE/MEHUL CINEMA,19.1614562673,72.9455144175
2111,WADALA TRUCK TERMINAL,19.0366233691,72.8753652677
4994,CHEMBUR CLY.,19.0455032966,72.893131545
1172,MAJAS DEPOT/SHYAM NGR.,19.1392187507,72.8654855975
3963,GAVDEVI MANDIR,19.1850341542,72.9741242075
1659,SEWREE STN.(E),18.997788526,72.8545714151
4763,SEWREE NAKA,18.9987234147,72.8504468185
3848,GURU TEG BAHADDUR NGR.,19.0357936,72.8655789
3815,NAVJEEVAN SCTY.,18.967120636,72.8141865711
3663,LOUISWADI,19.1972642074,72.9626463938
3727,ACHARYA ATRE CHK.,18.9965876675,72.8183640824
2669,AIROLI SECT.NO 5,19.1480749402,72.9974879281
1498,MALVANI VILLAGE/MALVANI CHURCH,19.1966307599,72.8085640715
2955,DR.AMBEDKAR GARDEN BUS STN.,18.9743986946,72.8435674378
4768,COOPERGE TEL.EXCH./Y.B.CHAVAN PRAT.,18.926845494,72.8280106933
4735,KULUPWADI,19.2293169214,72.8648865767
442,SUKH SAGAR,18.9566898631,72.8133107193
1427,DHOLKIA YAMUNA NGR.,19.1458065785,72.8289306901
4623,PRAKASH COTTON MILL,19.00465197,72.8238514928
4951,HINDMATA CINEMA / WADALA DEPOT,19.0117840158,72.8433174182
4698,GANDHI NGR.,19.2191382326,72.970518856
2927,NAGRI NIWARA PLOT NO.5,19.1678689,72.8800648
1819,CHITRAGAN SCTY.,19.1656568361,72.9544489783
164,KAMGAR NGR.,19.060408555,72.8848481904
1748,HOUSING CLY.,19.1720818715,72.8704938623
3807,MUNICIPAL LIBRARY,19.0672263495,72.8916621489
993,VATSALABAI DESAI CHK/SAHAKAR NIVAS,18.9773339986,72.8115218322
1870,HIRANANDANI GARDEN,19.1140554737,72.9089106509
4966,RANI LAXMIBAI CHK.,19.0444368256,72.8645577319
1897,RABALE VILLAGE,19.1404530541,73.0026806848
136,ROYAL HOTEL,19.0922399166,72.8279186602
480,MULUND SONAPUR,19.1772088048,72.9534298362
2616,SHIVAJI NGR.,19.1436912926,72.7901104735
2943,GOLIBAR MARG(A.HAMID CHK),19.0734990311,72.8433813246
599,BREACH CANDY HOSPITAL,18.9719125132,72.804775302
1403,DHAKE CLY.,19.1245135571,72.8334029173
1552,DAMU NGR./MAYUR MARKET,19.1994229438,72.8786943721
3283,GOREGAON TEL.EXCH.,19.1571300303,72.856449167
4446,GAURAV GARDEN COMPLEX,19.2130550867,72.8330577765
2460,DHANVANTARI HOSPITAL,19.1778790383,72.9514371423
1386,PRATAP NGR.(MAJAS),19.1408834312,72.8566166378
1715,GOVANDI BUS STN,19.0543437903,72.9158129547
424,SAIDHAM,19.1742446087,72.9504501454
4912,MUNICIPAL GARAGE (WORLI),18.9968259983,72.8182909081
5154,MADINA MANZIL,19.1772010844,72.8489421847
3837,AAI TULJABHAVANI CHK.,19.1418390851,72.8295091575
4941,HUTATMA CHK.(PAY & PARK),18.9292326841,72.8313358547
3202,SAVE NGR.,19.2552049163,72.860573198
1480,VANRAI MHADA/NIRLON INDU.EST.,19.1553057748,72.8566422861
812,R.K.STUDIO,19.0468102014,72.9080483113
3847,NAHUR STN.(E),19.155418535,72.9475547898
337,SHIVAJI NGR.TERMINUS,19.0646193296,72.9314347104
3174,ANAND NGR.,19.2576031768,72.8643741293
474,SHANGRILA CO.,19.1557319341,72.9374384494
658,MAGATHANE TEL.EXCHANGE,19.2174044881,72.8667783062
3089,BABASAHEB WORLIKAR CHK.,19.0125498692,72.821500661
3589,SONA HOSPITAL,19.0798360689,72.850096754
2987,NIRLON SCTY.,19.1766150638,72.8369968194
3054,R.T.O.OFFICE/DARGAH,19.0152671793,72.8175373588
5193,MANGALDAS MARKET,19.0759837,72.8776559
2670,AIROLI SECT.NO 9,19.1488857584,72.9922951715
3590,ST.CHARLES CONVENT SCHOOL,19.0800008347,72.854715518
2625,PHATAK TECH.SCHOOL,19.0809281089,72.8501835453
3141,TWO TANKS,18.9615231825,72.8285298588
4088,ANNABHAU SATHE CHK. (THANE),19.1948850345,72.9472194037
2154,NEW HINDUSTAN DORR,19.1128366104,72.8572701035
4262,SHANKARWADI,19.1303530339,72.8554247169
4208,VENUS BLDG/WATUMAL ENGG.COLLEGE,18.9958630521,72.8129365741
3053,WORLI SEA FACE (S),19.0059857251,72.8152843033
697,MAHALAXMI STN.,18.9819342689,72.8252525041
240,GOL BUILDING,19.065987122,72.8748761331
3955,SIDHARTH NGR.,19.183818192,72.971205964
2052,MIRA RD.SECT.NO 8,19.2787282879,72.8630461541
4757,HIRANANDANI(KHARGHAR SEC-7),19.0350511635,73.0634653093
2275,POWAI VIHAR COMPLEX,19.117704876,72.9039753864
2000,STATE BANK,19.1873554924,72.8613165714
874,GULAL WADI/YADNIK CHK,18.9558463238,72.8271506049
4356,ANAND NGR. (BHAYANDER),19.3039375071,72.8637142945
5206,INDIAN HUME PIPE CO.,19.0175694919,72.8699535558
393,ADARSH VIDYALAYA,19.1357104788,72.9333918681
2493,BORIVLI TEL.EXCH.,19.2317928186,72.8561765223
1484,ISHWARBHAI PATEL RD.,19.1614068167,72.8563633363
1057,NARMADESHWAR MANDIR,19.0385906145,72.9446719357
3335,BPCL SPORTS CLUB,19.0278758723,72.8954275521
5001,BABHAI NAKA,19.2297883452,72.8496311642
2762,EKTA VIVEK BLDG.,19.2579873469,72.8530514447
3921,DONGARI PADA,19.2491108546,72.9740329719
3789,KALPANA CHAWLA CHK.,19.241097079,72.8462565796
4179,PANCHAVATI,19.1196323814,73.0047495012
590,KURLA STN (W),19.0666319246,72.8793608576
5039,MUN.WARD OFFICE-CHEMBUR,19.0634472646,72.8986107671
4826,GOKHALE BRIDGE,19.115941185,72.8463667405
2978,NAGBABA MANDIR (KAILAS COMPLEX),19.1177730799,72.9158917088
1411,RUSHI COMPLEX EXT.( DAHISAR - W ),19.2569339812,72.8511631695
4751,NELCO,19.1119083981,73.0272282617
3328,PODDAR HOSPITAL/SIDDHARTH NGR.,19.0009515014,72.8154056708
4018,VIVEKANAND NGR.,19.0235007598,73.0452305657
816,VASUDEO B.PHADKE CHK.,18.9439042479,72.8286011199
1797,GOVANDI STN(E)/PATWARDHAN SCHOOL,19.0543581032,72.9144667698
4141,"AROGYA HOSPITAL/ ""D"" MART",19.019971,73.016861
550,KABUTARKHANA,19.0182583324,72.8395391649
1486,GOREGAON STN(E),19.1653168777,72.8504251158
3708,BABU GENU MARKET,19.0912558649,72.9113393983
3107,ACHARYA GARDEN/ DIAMOND GARDEN,19.0527759228,72.9009425921
3805,LOKMANYA TILAK VIDYALAYA,19.0664556919,72.8968334478
2891,NEW GAUTAM NGR.,19.0609540021,72.9164471269
656,MAHINDRA CO. GATE (B.H.A.D.CLY.),19.2059713752,72.8653062478
4923,MADKEBUA CHK/DAMODAR HALL,19.0058760675,72.8386861792
3231,MAHIM ( PARADISE ),19.0373794211,72.842185857
139,DR.AMBEDKAR STATUE,18.9263181015,72.8297924577
4430,PAREL S.T.DEPOT/SANT ROHIDAS CHK.,19.0112773832,72.83201098
846,APNA BAZAR,19.0071191969,72.8450242498
3563,MITH CHKY,19.1956785961,72.8340058136
2252,JAFRI ENGLISH SCHOOL,19.0684726247,72.9222937421
4594,VASHI JUN.-Y.B.CHAVAN MARG JN.,19.0686504754,72.9972530203
4259,BORIVLI STN(E),19.2301110697,72.8576716164
4505,GORAI CREEK-W,19.2364860942,72.8180011766
4038,KALAMBOLI FIRE BRIGADE,19.0269026683,73.1055276849
4050,HARINIWAS,19.1918887241,72.9684261345
151,LOKMANYA TILAK HOSPITAL,19.0364333987,72.8603593658
1024,SHIVAJI NGR.JN.,19.0622819389,72.9172338143
1056,MANKHURD STN.(SOUTH),19.0449251895,72.9297382213
5091,GANESH MANDIR(D.N.NGR),19.127716723,72.8309138273
2224,YOGINGR./JAYRAJNAGAR,19.2348311778,72.8406419028
3502,WADIA MATERNITY HOSPITAL,19.0026013659,72.842981269
4632,SARSWAT BANK (KANDIVALI-W),19.1984626783,72.8489101059
511,INDIAN OIL NGR.,19.1284338647,72.8290629991
4016,TATA POWER CENTRE,19.1166066591,72.886968515
232,TATA HOSPITAL,19.0037208601,72.8422492186
4889,BHATWADI,19.0957658314,72.900919914
195,MAZGAON DOCK,19.0243663703,72.8900082657
367,BOROSIL GLASS FACTORY,19.117719669,72.8846036256
62,KALA NGR.,19.0531099866,72.8470974172
6,HUTATMA CHK./MUMBAI UNIVERSITY,18.9280061692,72.8313447664
4210,FLORA HOTEL/WATUMAL ENGG.COLLEGE,18.9950514848,72.8136017619
4742,KANHERI CAVES,19.2251528535,72.8837446857
3352,SANTACRUZ STN RD/KASHIBAI HOSP.,19.0842765687,72.8381127792
1298,DAHISAR MARKET,19.25577212,72.859071161
5198,STERLING COLLEGE,19.024402,73.022032
703,DR.SHYAMAPRASAD MUKHERJI CHK./REGAL,18.9235674747,72.8317803649
5035,RAMESHWAR MANDIR,19.2417190307,72.8695845162
2335,MODEL TOWN,19.1843431904,72.9451578063
1762,KAMGAR NGR.,19.0596288041,72.8851108144
4352,SUKHRANJINI TRUST,19.2985708288,72.8613754082
1132,JOHAR CHK.,18.9567121121,72.8284649821
4460,VITTHAL MANDIR,19.1999975774,72.8271399801
4258,MANAV KALYAN KENDRA,19.2458695421,72.8614005727
1252,NIRMAL LIFE STYLE/HOECHST CO,19.1649796755,72.9378355997
3530,AHILYABAI HOLKAR CHK.,18.9333337056,72.8264849129
859,TARDEO BUS STN/RUSHI MEHTA CHK.,18.9647092991,72.8206617915
2968,MINT CLY.,18.9945344963,72.8449598073
4184,MUSLIM CEMETARY(GOLIBAR),19.0730934376,72.8440465125
4693,RUNWAL PLAZA,19.215045306,72.9557030485
381,GODREJ SOAP CO.,19.0912469396,72.9249824541
532,MONGINIS CAKE CO.,19.1371821001,72.8318038103
1275,SAHAKARI BHANDAR,19.1035225754,72.8326393481
1871,BHANDUP STN.RD.,19.1469185304,72.9365159749
1234,BORIVLI STN(W),19.2284904001,72.8557937402
3581,MATHURADAS CLY.,19.0787866338,72.8591143407
1512,MADH BEACH/MADH CHURCH,19.1523670713,72.7902821349
3899,DAVA BAZAR(KALBADEVI),18.9460737917,72.8286544892
2765,KHODADAD CIRCLE (DADAR WORKSHOP),19.0166074522,72.8497254637
193,ACHARYA VIDYANIKETAN,19.0265776128,72.8901918801
602,VAKOLA PIPE LINES,19.080662631,72.8524757071
3429,BANK OF BARODA,19.136713,72.853387
1274,VIJAY PRINTING PRESS,19.1011659986,72.8841244608
792,BHARATMATA CINEMA/MAHADEO PALAV MAR,18.9953561853,72.8351553575
1909,SADHANA CASTINGS,19.158877779,72.9322058431
1084,B.S.E.S.SUB STN.,19.0593058164,72.8994839732
4361,MAHAMAYA MANDIR,19.0775747507,72.8802242701
3103,P.THAKRE CHK.,19.0190891029,72.8365145024
3433,IRANI BRIDGE,18.9598258042,72.8142731698
1627,RAMASHRAM,19.1193673548,72.9029454181
5059,OMKARESHWAR MANDIR,19.2300857442,72.862113712
438,J.V.P.D.BUS STN.,19.1199906825,72.8297009585
1564,MAHAVIR DHAM,19.2152864738,72.8443713332
4612,R.C.F.CLY.(SHRI KRISHNA SOC.),19.1508205839,72.9482990972
4601,S.R.A.CLY.EXTN.,19.1508736054,72.8495975841
3983,COSMOS HIGH SCHOOL,19.2448100359,72.8674588967
5140,VINAYAK MAHARAJ MASURKAR CHK,19.1728324672,72.8550757198
2122,SHIVNERI BLDG.,19.2268897771,72.824719575
5173,R.T.O.CAMP,19.1410329,72.8546762
1551,DAMU NGR.EXTN.,19.1975991566,72.8786085414
852,V.J.T.I.COLLEGE,19.0222636709,72.8569078792
4257,SHAILENDRA NGR.(MHADA CLY.),19.2447148057,72.8630528134
4956,FILMALAYA,19.1261185196,72.8408058922
3806,TILAK NGR.RLY.STN.,19.0661514839,72.8901601118
4729,MAHAPE PETROL PUMP,19.1140980775,73.0150045407
93,NEW CUSTOM HOUSE,18.9339820113,72.8398293833
722,KALACHKYPOLICE STN.,18.9879606352,72.843441677
4265,BORIVLI BUS STN.(W),19.2320839838,72.8562198956
4297,PARSIK SHIV MANDIR,19.202874833,73.0037166501
435,VEENA NGR./GOVARDHAN NAGAR,19.1802416028,72.9459930162
3707,BHATWADI,19.0869772623,72.9080510101
2474,KULKARNI WADI,19.1017895853,72.8986846542
3565,RENUKANGR.,19.2110571619,72.8355968815
4945,VAKOLA POLICE STN/ROOP TALKIES,19.0802514853,72.8480314177
726,KHODADAD CIRCLE (BHAVE CHK),19.0164451593,72.846662381
423,ST.PIUS SCHOOL,19.1726327745,72.9515121729
2624,MUNICIPAL DISP.,19.0833702112,72.8506661994
4256,SAIBABA MANDIR/MUNICIPAL MARKET,19.2420001302,72.8671083134
4193,CHINCH BUNDER,18.9588879618,72.8384065989
3523,SHETHIYA NGR.,19.0961775155,72.8876957595
5050,MAHIM/MAHIM BUS STN.,19.0397617369,72.8414442032
3699,OBEROY WOODS,19.1691227819,72.8647217485
1782,TAGORE NGR.BLDG. NO 4,19.1126008222,72.9331147039
5195,VISHAL HALL,19.118165,72.852259
2941,MAMA HOTEL,19.0722335837,72.8274200621
4429,BRAHMAND PHASE-5,19.257212066,72.9789693129
4727,ANTOP HILL BUS STN.,19.0271369385,72.8665073135
102,MUSTAFA BAZAR/SAVLYA TANDEL CHK.,18.9762817899,72.8402344341
1043,NERUL NAKA,19.0461698788,73.0244691549
4681,MHADA CLY.,19.1959479145,72.8724316456
3098,PT.PALUSKAR CHK.,18.9569582615,72.8153905198
1502,J.J.HOSP.NURSING SCTY.,19.1865792444,72.7980068969
4411,SAIKRUPA COMPLEX,19.2757683815,72.8844152445
47,PARIJAT,19.0509383316,72.8299714242
3552,KHERWADI JN.,19.0651205885,72.8469887994
41,COLABA BUS STN.,18.912522949,72.8224455882
3201,VIDYA MANDIR,19.2548402843,72.8629764573
3293,SAI SHRADDHA SHOPPING CENTRE,19.178687,72.816478
1492,HANUMAN NGR.,19.1733584961,72.8742334874
2660,A.P.M.COMPLEX,19.0747851927,73.0095948816
954,DHARAVI T JN./TAPASE CHK.,19.0470824434,72.8521049719
1282,MANO-BINA APTS,19.1128527868,72.8383004339
3078,SHREE RAM MILL,18.9969894573,72.8224953309
4112,GANESH CHK.(NERUL-E),19.0405532682,73.0150125839
3338,VASHIGAON,19.0326454,72.8884517
5199,NAKHAWA CHK.,19.0759837,72.8776559
4031,GHARKUL,19.0364770753,73.0802934624
4118,NERUL GYMKHANA,19.0250558152,73.0144117691
3286,PAYDHUNI,18.9538202063,72.8317372771
3511,D'SOZA NGR.,19.0936226098,72.8866657912
4291,R.T.O.OFFICE (THANE),19.1983895681,72.9819311155
4935,CHECK POST,19.2240992771,72.8701405216
495,WAGLE EST.POST OFFICE,19.1946488757,72.9499874229
711,HAKOBA,18.9881287705,72.8392735937
3123,PAREL S.T.DEPOT/SANT ROHIDAS CHK.,19.010441247,72.8324628766
2951,DWARKADHISH SCTY.,19.1668492458,72.8331139208
751,CHOWPATI BAND STAND,18.9558912585,72.8089789435
243,SHEETAL CINEMA,19.0812811324,72.881540124
5049,BYCULLA STN (E),18.9732030322,72.8343286547
5027,MAHESHWARI UDYAN (BUS STN),19.0282600906,72.8560666144
3791,MANASI PLAZA,19.2441847859,72.8460908298
3746,CALILIO BUILDING,19.1082302423,72.9022688621
1142,ANJUMAN COLLEGE,18.9617957465,72.8255229197
1196,MODEL TOWN,19.1326708963,72.8697556743
4264,BORIVLI TEL.EXCHANGE,19.2315774789,72.8563915569
530,JEEVAN NGR.,19.1319163366,72.8315495317
3306,GHATKOPAR POST OFFICE,19.0862366708,72.908007577
2099,HARE RAM HARE KRISHNA,19.1135773899,72.8260905511
4937,BORIVLI EDUCATION SOCIETY,19.2235633,72.8514281
2219,KELKAR COLLEGE,19.162494944,72.9565518302
1357,BHARAT NGR.,19.0612193227,72.8512454292
3893,NATIONAL(HINDUJA)HOSPITAL,19.0321196196,72.8395790925
4246,DR.K.B.HEDGEWAR CHK.,19.1634846258,72.937656619
880,HASRAT MOHANI CHK.,18.9664868222,72.8284641833
2870,KANDIVLI STN.RD.(W),19.2043028263,72.8497293151
192,H.P.NGR.,19.0277135905,72.8914793404
17,A.H.ANSARI CHK./ NEW NAGPADA,18.9670470233,72.8328077148
1349,MOUNT CARMEL CHURCH/LILAVATI HOSP.,19.051161438,72.8278900301
2781,MUNICIPAL MARKET/SAIBABA MANDIR,19.2415974768,72.8685699261
4140,GANESH SCTY.(NERUL),19.0263946575,73.0158279754
267,SHIVAJI MAIDAN,19.1032539497,72.9155956509
4274,ROYAL COLLEGE,19.2696855618,72.8720618391
1893,STANDARD ALKALI CO,19.1221266541,73.0054272668
4425,GAZDAR BANDH,19.0804922766,72.8298818817
4834,MIRA GAONTHAN,19.2663513873,72.8757213595
4499,HOTEL MAXWELL,19.2585270815,72.7932390229
4564,SHANTINGR.,19.2061519152,72.8346044651
553,SANTACRUZ STN.RD/ KASHIBAI HOSP.,19.0841373455,72.8379882901
3658,GILBERT HILL(PANCHAM SCTY.),19.121526359,72.8368209664
1639,SHANTI NGR.,19.0786361404,72.8764536898
3614,SHIMPOLI TEL.EXCHANGE,19.2241869036,72.8410900456
3549,CHAITANYA HOSPITAL,19.2924741291,72.8614744203
1249,OLD AGRA RD.,19.0782798581,72.8792656108
1310,I.C.CLY.,19.2452820457,72.846577613
2489,BHANDUP PUMPING CENTRE,19.1546221835,72.9571045892
246,NARAYAN NGR.,19.0847284749,72.890509431
1040,TURBHE POLICE STN.,19.0622535115,73.0190189062
1745,O.N.G.C.CLY.( DINDOSHI ),19.1744240869,72.8679800368
1335,ORLEM CHURCH/VALNAI VILLAGE,19.1955701,72.8379892
3260,KANDIVLI STN.(W),19.2039339505,72.8506267197
1781,TAGORE NGR.NO 3,19.1085655213,72.9298507801
700,JIJAMATA NGR.,18.9935402188,72.8201884935
426,VIDYABEN GARDI SCHOOL/KESHAVPADA,19.171444239,72.9478280328
3153,N.C.P.A.,18.9249847479,72.8221755304
115,VILE PARLE,19.1006552029,72.8393372259
717,JIJAMATA NGR.,18.9927171538,72.8204366523
4649,ANJANABAI MAGAR/S.SAINIK SURVE CHK.,19.0759837,72.8776559
4051,WAGLE WARD COMMITTEE OFFICE,19.1864889178,72.955309683
19,JIJAMATA UDN.,18.9772577915,72.8333380324
2855,DR.SHAMAPRASAD MUKHERJI GARDEN,19.2308963296,72.8533233064
3124,SAYANI MARG,19.0118613557,72.8316904004
3135,DEEPAK CINEMA,19.0031164725,72.8300368532
527,JUHU SHOPPING CENTRE,19.1161081749,72.8334882376
1813,ARUNODAYA NGR.,19.170529384,72.9663448677
2807,BELA NIVAS,19.113558516,72.863061939
5183,DHIRUBHAI A.K.CITY GATE NO.1,19.106628,73.010827
574,DINDOSHI BUS STN.,19.1762321596,72.8646761866
4253,GANESH NGR./GOKUL ANAND HOTEL,19.243865626,72.8653987247
4827,GOKHALE BRIDGE,19.1158185886,72.844584138
1914,HANUMAN MANDIR,19.1539320254,72.9352957479
1651,HINDUSTAN PETROLIUM CO.,18.981130508,72.8563738595
4616,LODHA PARADISE (COMPLEX),19.2111435777,72.9831498989
1268,MUNICIPAL HOSPITAL,19.1719386981,72.9595589397
1837,MANKHURD STN.( NORTH ),19.0491285423,72.9315184986
326,MARATHI VIDYALAYA(GHATKOPAR-E),19.0875512395,72.9169850892
4954,NAVRANG TALKIES,19.1234424354,72.8431233208
3748,IMAX ADLABS,19.0310268563,72.8804830411
1107,PLAY HOUSE,18.9618174353,72.8215346577
4150,HIRANANDANI EST.,19.2514228617,72.981284525
504,AIR CONDITION MARKET,18.9727988113,72.8146010081
402,PRABHADEVI,19.0161012445,72.8283478137
5102,VASHINAKA,19.0330084533,72.8968222646
3409,ANDHERI STN.(W),19.1205630153,72.8457311576
1739,ASHOK HOSPITAL,19.1817133834,72.8533857744
278,SHIVAJI NGR.,19.0010269437,72.8538271903
770,B.P.T.CLY.,19.011482968,72.8621459733
153,RANI LAXMIBAI CHK.(NEAR RD NO.1),19.0452499966,72.8651568411
3587,HOTEL GRAND HYAT,19.0781731929,72.851083807
1707,SAIBABA MANDIR/SATYA SAIBABA MANDIR,19.1298076472,72.8700212424
2977,HANUMAN MANDIR,19.1586102888,72.9434608246
1075,WORLI DAIRY,18.9976473565,72.8115873703
2373,MAHIM BUS STN.,19.0432840233,72.8400750979
4012,MULUND STN(E),19.1713616747,72.9566319074
5165,DADASAHEB SARFARE CHK.,19.0759837,72.8776559
1139,BYCULLA TELEPHONE EXCHANGE,18.972160597,72.8370579537
2419,ELCO MARKET,19.0556437837,72.8330398714
3602,NATIONAL STOCK EXCHANGE,19.0619181159,72.8612530739
3304,BLOSSOM CO.,19.1169999322,72.880848533
1048,VEEJ BHAVAN,18.9219451312,72.8266333618
4813,ANAND NAGAR.KOPARI,19.1798857078,72.9668213561
4680,ALIKA NGR.,19.197226607,72.8742929269
2735,A.T.I.,19.0534547827,72.8805227497
644,GOREGAON CHECK NAKA NO 1,19.1661755084,72.8582061784
4631,GHANSHYAM NGR.,19.1994400824,72.8505277683
4771,SAIDHAM,18.9590137835,72.8173021693
1200,GREEN FIELDS,19.1396849967,72.8692406902
336,FIVE GARDENS,19.0195658302,72.8548630672
1525,EVERSHINE NGR.,19.1927857918,72.8331839368
988,SAMRAT HOTEL,18.9316102836,72.8269606607
4292,KALWA BRIDGE,19.1970891777,72.9851019636
4234,SAIBABA NGR.(KANDER-PADA),19.2584505715,72.8537641992
3904,PUNCHASHEEL GARDEN,19.210321002,72.8401665632
166,NEHRU NGR.BLDG. NO 36,19.063166519,72.8807641959
4242,GREEN PARK,19.1460255772,72.8334426557
3776,SURYA NGR.POLICE CHKY,19.1180142228,72.9246507886
130,K.C.COLLEGE,18.929281524,72.8281831323
4230,GOVANDI STN.RD.(E),19.052834414,72.9142288755
1749,YASHASHRI BUILDING,19.1724264195,72.8693780634
2018,SHIV DARSHAN ( TERESA RD BHANDUP W),19.1484980749,72.9271752293
4294,MANISHA NGR.(KALWA),19.1968107898,72.9905738259
572,MALVANI BLOCK NO 6,19.1904947125,72.819940307
4658,STUDENT REQUEST STOP,19.1743382639,72.7975777434
5002,HINDUSTAN NAKA/C.CHARANSINGH CHK.,19.2066322315,72.828888333
3754,P.THAKRE NGR.MARKET,19.215452267,72.8297728505
4192,DONGRI,18.9583547562,72.8367683409
4686,KAMANI,19.0851137617,72.8868187113
979,SAIBABA MANDIR,19.2182545352,72.8287385767
5,DR.SHYAMAPRASAD MUKHERJI CHK.,18.9256313577,72.8318061063
1940,"I.E.S.SCHOOL,JVLR",19.129899,72.919199
1036,I.C.L.SCHOOL,19.0731597437,73.0171112944
604,KALINA,19.0778235785,72.8618527098
4876,GANGA BAWDI,19.1970646971,72.8683462628
3945,VALLABH PARK(EXTN.RD),19.0845769474,72.9090455932
4942,ICICI BANK,19.1871520235,72.8396641538
346,R.C.F.CLY./GOLF CLUB,19.0461063972,72.9001004873
4638,AMBIKA MILL B.STN/ H.U.RAKHANGI CHK,18.9890764877,72.8225059221
4819,CRESCENZO,19.0662226986,72.8612961611
1267,MULUND STN.(E),19.1716966922,72.9570024413
1805,JIJAMATA NGR.,19.0284892225,72.8881540403
4970,600 TENAMENT,19.0523256451,72.9179477127
4163,S'CRUZ STN.RD/KASHIBAI HOSP.,19.084454718,72.8380990668
231,GANDHI MARKET,19.0323603254,72.8587289073
1140,BYCULLA STN.-E (POLICE STN),18.9738245343,72.8340860661
1608,DONGRE WADI,19.2430156,72.8699278389
4217,POUSHMATA MANDIR,19.2802224735,72.955795027
4379,CRISIL HOUSE,19.1170242779,72.9103858429
345,GANDHI MARKET,19.0460131278,72.8972190013
5185,BONKODE VILLAGE,19.0970737,73.0117476
1358,MAHATMA GANDHI VIDYA MANDIR,19.0609658081,72.849459078
1296,MARY IMMACULATE SCHOOL,19.2472202631,72.8542166013
3787,MUNICIPAL GARDEN,19.238129864,72.8496393923
4939,CHAR NAL,18.9583851971,72.8361947055
4463,PANCHESHWAR MAHADEO MANDIR,19.2395605889,72.8594829895
4495,DONGRI-KUMBHADI,19.2905298581,72.8015216844
1887,R.F.NAIK SCHOOL,19.0956161852,73.0057941765
349,PANJARAPOL,19.0457413028,72.9085548102
56,LOWER PAREL STN.,18.9958061405,72.831334856
3928,KAPUR BAWDI,19.2195238207,72.9779173554
3418,RUSHIVAN,19.2379017102,72.8722976018
2661,MATHADI BHAVAN/COMMODITY EXCHANGE,19.0797738726,73.0076851488
522,GOREGAON BUS STN(W),19.1650686232,72.8484736719
1620,SARVODAYANGR.,19.146990453,72.9289112655
5064,DADAR CREMATORIUM/CHAITYABHUMI,19.0220650324,72.8337731389
194,WADALA RD.,19.0215872124,72.8901370118
3172,ANAND NGR.,19.2577405717,72.8644690198
3651,MANTRALAYA MAIN GATE,18.9273811993,72.8257588135
3636,SHREE KRISHNA NGR.(KALINA),19.0742713916,72.8530822616
294,MADINA MANZIL,19.1743222178,72.8451959871
1020,DNYAN SARITA,19.178736285,72.9504778865
1544,HANUMAN NGR.,19.200922487,72.869081335
4988,MHADA COLONY (SHIMPOLI),19.2190893623,72.8353703229
3184,NOVELTY SILK MILL,19.2540270797,72.8661399024
1723,DADASAHEB PHALHKE CHITRA NGRY,19.1599894643,72.8872845742
3417,SIDDHARAJ SCTY.,19.2346601669,72.8719757367
4500,RAMRATNA VIDYAMANDIR,19.2523688684,72.789634134
2753,TAGORE NGR.NO.5,19.1249497184,72.9359922623
2114,WADALA TRUCK TERMINAL MAIN GATE,19.0357447208,72.8797412645
4604,SUBHASH NGR.(THANE),19.2163355823,72.9728193998
3888,KORA KENDRA,19.2255740875,72.8546178467
4592,MUKUND CO.,19.1822405747,72.9951917332
3524,TECHNIMONT I.C.B.HOUSE,19.181337,72.833598
60,JAKHADEVI/ DADAR POLICE STN.,19.0133907494,72.8336954593
4449,ALFA KIDS CENTRE,19.1407720222,72.8223307585
3767,SOMMAIYA COLLEGE FRONT GATE,19.0734980385,72.8964930124
3039,WADALA CHURCH,19.0189419282,72.8586577977
266,MUNICIPAL HOSPITAL(PARK SITE),19.1020576611,72.9169903996
3,STRAND CINEMA,18.9173370318,72.8273949847
2170,SANGAM NGR.,19.0238378974,72.8765410611
255,DARGAH,19.0951052711,72.9141440467
223,KANE NGR.,19.0295305886,72.8642006137
5145,VASHI BUS STN,19.0690462357,72.9896249888
1091,PERI CROSS RD.,19.0601974264,72.8231314441
163,NAIK NGR.,19.0576097187,72.8849769365
143,SWADESHI MARKET,18.9497161128,72.8287752923
1524,ORLEM WELL,19.1948880008,72.8389052199
1751,RANI LAXMIBAI CHK.(NEAR RD NO.1),19.0469441005,72.8663449491
3112,GEN.A.K.VAIDYA MARG JUN.,19.1748794682,72.8627146511
471,BHARATIYA AROGYA NIDHI HOSPITAL,19.1121516972,72.829045202
3571,SUBHASH NGR.,19.0667441609,72.8476946018
5142,GEN.A.K.VAIDYA MARG JUN.,19.174595727,72.860826376
392,CROMPTON GREAVES,19.1332575457,72.9361599078
1835,DERASAR LANE,19.0811904378,72.9053119583
4090,SRUSTHI POLICE STN.,19.2714973064,72.8673169459
1082,POST OFFICE,19.0568416097,72.8981535976
665,FERRY WHARF,18.9572807823,72.8495255906
895,HUTATMA CHK. ( O.C.S.),18.9320825189,72.8312515794
225,ANTOP HILL POST OFFICE,19.0246215402,72.863857291
720,RATHOD MARG,18.9643323874,72.8402106962
4084,SIDDHIVINAYAK MANDIR,19.0172145494,72.8302226957
105,ROBERT GOMES CHK.,18.9811719739,72.8354279156
2633,C.B.I.QRTS.,19.0820776289,72.9127416773
4476,POLICE CLY.,19.0751535499,72.8565235357
1315,DAHISAR BUS STN.,19.2558619014,72.8700551524
94,FOREIGN POST OFFICE,18.9354492647,72.8404718482
611,LAXMANRAO YADAV MARKET(KURLA MARKET,19.0702504,72.8792453
3007,KHODADAD CIRCLE (PRITAM HOTEL),19.0168001748,72.8457987097
409,BIRLA CO.,19.1342286173,72.928386238
714,GOPIKRISHNA PIRAMAL HOSPITAL,18.9982632519,72.8254478614
4810,DEEPAK CINEMA,18.9995084563,72.8310996779
4687,MARATHON CHK.(TEEN HATH NAKA),19.1889859692,72.9638669777
4968,K.E.M.HOSPITAL-NURSES QTRS.,18.9995891134,72.8423621267
3529,TARDEO BUS STN/RUSHI MEHTA CHK.,18.9694139393,72.8152421153
1179,I.I.T.MARKET,19.1275578597,72.9189099261
1737,GEETANJAI BLDG.,19.1782173975,72.8547805231
4269,BEHRAM BAUG,19.1456221872,72.8368251218
3938,GEETANJALI,19.1316331446,72.8426056542
4948,JIJAMATA UDN,18.9805043837,72.8369429214
3375,INDIAN OIL NGR.,19.063863851,72.9125989571
2232,KHODADAD CIRCLE,19.0171501179,72.8472631958
1308,MADHUR CLY.,19.1791503147,72.8413961134
4042,VRINDAVAN SCTY.(THANE),19.2017419759,72.9829808385
2370,MAHIM PHATAK,19.0432237892,72.845287387
4641,BHARAT BIJALI CO.,19.160341377,72.9999660653
957,KHERWADI POLICE STN,19.0655957571,72.8475081876
21,SHANTARAM PUJARE CHK.,18.9883104664,72.8358590082
3185,OMKARESHWAR MANDIR,19.2301235535,72.8629029885
1951,VAISHALI NGR.,19.2479377846,72.8687733159
4588,PERU BAUG,19.1660200189,72.8522144203
3752,RUBY SCTY.,19.2151980302,72.8167862164
734,REAY RD.BRIDGE,18.9760554414,72.8441848471
1112,WANKHEDE STADIUM,18.9388459585,72.8242249005
3712,B.A.R.C.GATE NO.6,19.0419019605,72.9331330846
5119,MALAD DEPOT,19.183696771,72.8343738949
1435,JAY GANGA,19.2118749883,72.8209505856
4685,KAMANI,19.0845054138,72.8845871134
600,MAFATLAL PARK,18.9746925008,72.8063202544
962,ZULELAL CHK.,19.1401489787,72.8264181508
1883,JUHU NGR.( VASHI ),19.0853151787,73.0023180336
534,ADARSH NGR.,19.1448091366,72.831270582
3556,SIMPLEX MILL,18.9801273169,72.8303735429
4774,BORIVLI STN.(W) BUS STN.,19.2315618259,72.8564274276
483,MUMBAI CENTRAL DEPOT,18.9685071128,72.8224398713
1365,GORAI DEPOT,19.2329544206,72.8259462685
3061,VILE PARLE,19.101550494,72.838895571
4089,DR.AMBEDKAR CHK/INDIRA NGR.,19.1950674171,72.9462323508
4149,L & T GATE NO.6,19.1152776743,72.8888451486
4580,MADHANI CIRCLE,19.2588889127,72.9756747746
4684,SUNDER BAUG (KAMANI),19.087141572,72.8872907801
1221,MOTILAL NGR.POST OFFICE,19.1591233549,72.8411505025
4022,YERALA MEDICAL CENTRE,19.0314525876,73.0605084283
1999,HIRA PARK,19.1863523384,72.8602812387
2850,NARSIPADA,19.2011656549,72.8641031551
3810,MUMBAI CENTRAL STN.(ON BRIDGE),18.9689266706,72.8184888344
2183,NANA CHK.,18.9618907606,72.8129220454
1631,NAVPADA,19.0826590466,72.8898942966
4802,VASHI SEC.28 & 29,19.089178034,73.0076029367
276,SEWREE STN.(W),18.997901717,72.8540034276
1010,PUNJAB FOUNDRY,19.2759470896,72.8819450395
3659,MUNICIPAL URDU SCHOOL,19.122785285,72.8371753858
4015,MARVA INDL.EST.,19.1140115196,72.8874405838
3981,DHARAVI PUMPING STN.,19.0472053706,72.8614239168
3736,H.D.F.C.STAFF QTRS.,19.145898026,72.8472759003
4373,VITTHAL MANDIR,19.2013353852,72.8422606157
2557,BORIVLI STN(W),19.2294277562,72.8561666167
2775,MULUND RLY.STN.(W),19.1728325175,72.9566352633
4329,SHAILESH NGR.,19.1979377181,72.840506035
441,PT.PALUSKAR CHK.,18.9563352821,72.8156893762
3134,VASANTRAO NAIK CHK.,18.9688012508,72.8159742991
1373,JEEVAN BIMA NGR.,19.2440656023,72.8500441032
2803,MUNICIPAL CLY.SECT.-B,19.1724652123,72.8744874839
5036,SANDU GARDEN,19.0598777915,72.8977524602
2888,YOGI HOTEL,19.2350337759,72.8437318076
3539,LIBERTY GARDEN,19.187314149,72.8424107358
677,CARNAC BUNDER,18.9520900544,72.8413927513
1829,KRISHNA BAUG/FINE ARTS AUDITORIUM,19.0647452358,72.8991257512
3192,NOVELTY SILK MILL,19.2543135922,72.866795923
2747,GHATKOPAR STN.(E)-2,19.0846971852,72.9073213597
1143,DADAR POLICE STN.,19.0139932169,72.8347674458
1775,STANDARD CHARTERED BANK,19.0821080468,72.9089114828
701,MUNICIPAL CLY.,19.0121251493,72.8202971804
473,WADALA DEPOT,19.0146419145,72.8532377903
4728,LOKSHAHIR SATHE UDYAN/SUMAN NAGAR,19.0536472406,72.8844274188
1149,GOVT.CLY./INDIAN.MEDICAL.ASSN.CHK,18.9787734289,72.81527406
851,CHITRA CINEMA,19.0150620163,72.8454923976
1374,L.I.C.OFFICERS TRAINING CENTRE,19.2439551063,72.8478007003
5125,GHATKOPAR STN (E),19.0866469665,72.9095970952
781,K.V.YADAV CHK.,18.9995682811,72.8281212493
608,METRO PLAYING CARDS,19.073794957,72.8694687998
1343,PALI MARKET,19.0620731804,72.8295819225
2851,PIPE LINE,19.1774245281,72.9417765837
1451,VEERA DESAI RD.,19.1324777803,72.8376480586
3233,MAHIM,18.9888317017,72.8282830072
4137,NATHU JOMA PATIL CHK.,19.0606328946,73.014025531
2003,TRIVENI NGR.,19.1803710454,72.8639654794
319,S.G.BARVE MARG NAKA,19.0570408476,72.8878251861
3784,KUMBHARWADA,19.038850759,72.8542603283
1888,TEEN TAKI,19.1046418,73.0031177
5069,RAM GANESH GADKARI CHK.,19.0251890372,72.8404250173
1384,SHANTI NGR.,19.1221473043,72.8642443302
33,SHITALADEVI TEMPLE,19.0347321062,72.8423390369
1705,BAMAN PADA,19.1082867235,72.8589383548
718,ADARSH NGR.,19.0142945504,72.8203634044
4883,GHATKOPAR STN.(W),19.0889758467,72.9059337619
5214,ROYAL COLLEGE,19.2696855618,72.8720618391
26,HINDMATA CINEMA,19.0083495266,72.8413721872
4325,THATIA BHATIA SEVA FUND,19.1981428947,72.8472544729
2490,AIROLI TOLL NAKA,19.1534870763,72.9651297586
5147,HANUMAN ROAD,19.1037622899,72.8540125011
2780,HANUMAN TEKDI,19.2423875755,72.8717563904
4154,DHEERAJ ENCLAVE,19.2146053451,72.8695091772
3610,JAIHIND CINEMA,18.9837747642,72.8353510825
414,KASTURI VIDYALAYA,19.1517896627,72.9384197245
2713,NEW HINDUSTAN DORR,19.1122689142,72.8567551194
4708,ANDHERI MARKET,19.1250411511,72.8469519425
4104,JALVAYU VIHAR(KHARGHAR),19.0503163703,73.0703360421
4792,ESTRELLA BATERY,19.041852747,72.8560627728
1753,SARIPUT NGR.,19.1331542355,72.8746573709
3665,DOMESTIC AIRPORT TERMINAL 1-B,19.093660814,72.8559303923
571,MALVANI BLOCK NO 5/ POLICE STN.,19.1923591085,72.8220860742
3345,LOKMANYA TILAK HOSPITAL,19.0361001367,72.857559366
3016,MAHARSHI ARVIND CHK.,19.1758928758,72.9513352183
4897,GARDEN ESTATE,19.2411345281,72.9719610929
1175,VIKHROLI COURT,19.1146527309,72.9359966571
3235,MAHIM ( PARADISE ),19.0426217372,72.8401756763
5012,UNICHEM COMPANY,19.1420199203,72.8478601843
2794,MAHIM PHATAK,19.0459985419,72.848590059
4020,BHARATI VIDYAPITH,19.0251236127,73.0545431954
4993,CHEMBUR CLY.,19.0439258611,72.8933987398
2165,INDIRA NGR.,19.1782178577,72.868340928
4326,NIRMAL APARTMET,19.1981682252,72.8461279451
2317,KURLA NAGRIK SAHAKARI BANK,19.1517033207,72.9464615838
824,NAIGAON POLICE CLY.,19.0070821834,72.8470060806
1419,NEW SIDDHARTH NGR.,19.159225063,72.8384237546
325,POLICE STN- PANT NGR.,19.0860303879,72.9147534913
1439,YASHKRIPA BUILDING,19.2239521143,72.8421509472
2813,DHOBI GHAT/DR.AMBEDKAR NAGAR,18.9109141318,72.8188038114
4856,GHODBUNDER VILLAGE JN.,19.2857959291,72.895977402
3711,ASHISH COMPLEX,19.261441836,72.8635962886
830,BAWLA MASJID,18.9930822284,72.8314424037
3772,POLICE GROUND,19.0841996793,72.9087599159
1490,GOKULDHAM MARKET,19.175628429,72.8698990376
4748,H.P.OFFICERS QURTS.,19.066246,72.858167
2986,GANESH CHK.,19.2153359801,72.8337540782
1120,HORNIMAN CIRCLE,18.9312244595,72.833777407
595,PRIYADARSHANI,18.9597037937,72.8007916006
3867,DHARAVI POLICE STN.,19.045402145,72.8589748918
3034,DR.SHYAMAPRASAD MUKHERJI CHK.,18.9256914893,72.8309917691
4843,GALAXY APTS.,19.0540111331,72.8244378032
1876,KANNAMWAR NGR.BLDG 175,19.1148913108,72.9397213093
2105,FISH MARKET,19.2451421282,72.8686874852
5106,SAHAKAR NAGAR,19.0657236081,72.891542962
1,COLABA BUS STN.,18.9118892648,72.8230460117
1224,NEW ERA TALKIES,19.1825734532,72.8467815179
132,SANTACRUZ POLICE STN,19.0842113781,72.8345156356
2756,R.B.I.CLY.(BHANDUP VILLAGE-E),19.1480343991,72.9479850786
3364,KHERANI BAUG,19.1049729156,72.8953157997
2796,MULUND RLY.STN.(W),19.1729804314,72.9567503543
63,KHERWADI JN.,19.0616975349,72.8462830433
4407,SAHAKAR BAZAR,19.1490714291,72.9995583695
4747,DR.AMBEDKAR NAGAR,19.0669557364,72.8511924874
4932,CHINCH PADA,19.2294683938,72.8673939396
3538,LOKMANYA TILAK CHK.,19.18586008,72.8445737171
1738,STATE BANK CLY.,19.1795752675,72.8543620985
1361,MUNICIPAL OFFICE/BHABHA HOSPITAL,19.0571804857,72.8338540112
1777,SHIVNER CHK./GANESH MANDIR,19.0842864608,72.9154401369
5052,BAJAJ BHAVAN,18.9255479076,72.8250363512
2995,KALA NGR.,19.0545892908,72.8477670142
218,SARDAR NGR.NO 2,19.0367316161,72.8683419445
1767,THAKKAR BAPPA CLY.,19.0590728295,72.8874807561
2088,NAVY NGR.,19.1884377822,72.8378860299
3550,SHREENATH COMPLEX,19.2940538323,72.8598865525
4197,UMARKHADI,18.9625509227,72.8373980883
122,JOGESHWARI BUS STN,19.1335425275,72.847619223
2697,JAMBHULPADA,19.0946825007,72.8973218382
1159,NARAYAN PUJARI NGR.,18.9951083074,72.8136890571
3521,BAINGANWADI,19.0610601469,72.9165642802
3319,MARVE VILLAGE,19.1953338246,72.8003135966
4574,KOKANIPADA EXTN.,19.2427688596,72.8724814171
3264,AHILYABAI HOLKAR CHK.,18.9318936516,72.8272023862
4572,SHIMPOLI B.M.C.SCHOOL,19.2244736856,72.846299495
4838,C.B.D.BELAPUR/KONKAN BHAVAN,19.0239378042,73.0402017144
1436,CHARKOP VILLAGE,19.208854978,72.8193248766
1590,GOKULANAND HOTEL,19.2442598908,72.86456693
724,JUBILEE MILLS,18.9937432119,72.8485700606
3382,ANUSHAKTI NGR.,19.0427191074,72.9261058008
3307,GHATKOPAR POST OFFICE,19.0862718073,72.9086639168
140,MUMBAI GYMKHANA,18.9367503189,72.8305965787
2126,CHARKOP SECT.NO.6,19.2174736314,72.8338077224
1156,BHASKAR COURT,19.0553883149,72.8440035971
2642,MAHARASHTRA NGR.,19.0514672069,72.9376848579
2903,LOKMANYA TILAK TERMINUS,19.0675305555,72.8890013975
3234,MAHIM ( PARADISE ),19.0371459309,72.8422639351
1414,THAKUR PAKHADI,19.2340771675,72.8460491555
2741,SHIVDHAM (RUSHI COMPLEX),19.2536994492,72.8497962821
314,PRATIKSHA NGR NO.1/SAMAJMANDIR HALL,19.0392047091,72.8667463252
4598,KALPATARU EST.,19.1398268974,72.8674597034
3574,HEMA INDL.EST.,19.132075389,72.8629002181
458,NATIONAL COLLEGE,19.0622964519,72.8356403624
986,SHASTRI NGR.,19.0845291432,72.8345120314
1364,GORAI BRIDGE,19.2265250822,72.8283459215
3291,J.V.P.D.BUS STN.,19.1161162676,72.8291887685
260,LAXMI NGR.,19.0895951893,72.9161728068
3119,HUTATMA CHK./MUMBAI UNIVERSITY,18.9300934115,72.8297495424
1030,Y.B.CHAVAN MARG JN.,19.0686621916,72.9965312658
2569,MAHUL MARKET,19.0163736302,72.8903515885
2063,KASTURI EST.,19.3009099121,72.8567646909
2627,600 TENAMENT GATE,19.0540919042,72.9179195951
628,NELCO,19.1160720283,72.8617835521
4779,AMRUT SHAKTI,19.1069849259,72.8970535085
4028,HIRANANDANI COMPLEX JUN.,19.0363148018,73.0710237481
1161,HANUMAN MANDIR/D'SILVA SCHOOL,19.0195151146,72.8403845029
4178,GHANSOLI RLY.STN.,19.1162263148,73.0055219774
1405,SHANTIVAN RD JN.( OSHIWARA ),19.1516500888,72.83169784
3933,KASHIMIRA,19.2751183309,72.8868729842
4910,SMT.M.B.DALVI HOSPITAL,18.9579125349,72.8110474094
3655,FREE PRESS JOURNAL MARG,18.9242220977,72.8248464378
1828,RANI LAXMIBAI CHK.,19.0454310652,72.8646129263
1341,BANDRA TALAO,19.0574082939,72.8384686624
4482,SATHE NGR.,19.1782277975,72.9968654317
740,SEWREE STN.(W),18.9980133058,72.8540356141
3341,ST.XAVIERS TECH.INSTITUTE,19.0460621816,72.8438599517
3661,NAVRANG TALKIES,19.1240219706,72.8421535658
3878,SHANTIVAN,19.2347412062,72.8641114998
1505,AKSA BEACH,19.1785538036,72.7975777434
1802,DHAIRYAVAN CHK.,19.0307831922,72.8455761761
3652,NARIMAN POINT FIRE BRIGADE,18.9232442062,72.8262685813
3637,SUMER HOUSE,19.122323932,72.8726991631
1230,POISAR DEPOT,19.2136184415,72.851416375
3918,MRUCHHALA COLLEGE,19.2656406007,72.9674240089
953,RANI LAXMIBAI CHK./ SION BARRIER,19.0471333906,72.863122383
356,MANDALA,19.0409435323,72.9390500256
4644,BUNTARA BHAVAN,19.058438864,72.879866573
347,WADAVLI VILLAGE/BORLA SOC.,19.0457818689,72.9044778525
3604,M.M.R.D.A/PAY & PARK,19.0685900726,72.867649362
1960,TATA PRESS,19.0425365509,73.0280740438
89,DHOBI GHAT(NAVY NGR.),18.9070698435,72.8134707732
710,SHRAWAN YESHWANTE CHK.,18.9880273201,72.8414408185
3902,GREEN MIDOSE,19.1971658136,72.8705056477
37,R.C.CHURCH,18.8966184798,72.8114438533
451,JARIMARI MATA MANDIR/S.T.OFFICE,18.9917489002,72.814065255
2013,HOMEGUARD TRG SCHOOL,19.085638909,72.8941303453
3000,SHIVAJI CHK.,19.110613571,72.8497491991
1441,CHIKOOWADI,19.2197293929,72.8406608921
4030,KOPARA VILLAGE,19.0357232,73.0741001
1433,CHARKOP SECT.NO.2,19.2154927914,72.8240221943
1736,RESERVE BANK CLY.,19.1784504655,72.8569101971
2516,MARIAMMAN MANDIR,19.1890924529,72.8371815491
3012,MUMBAI CENTRAL STN./RESERVE BANK,18.9695541473,72.8210767176
4860,SHASTRI NGR,19.1585558178,72.8352118901
2946,MUNICIPAL CLY.SECT.-D,19.1716144503,72.8757815142
3026,JIJAMATA UDN.,18.9805789633,72.8344069449
4776,BORIVLI STN.(W) BUS STN.,19.228097255,72.8409233544
559,GOREGAON POLICE STN,19.1572588297,72.8458320769
3792,ATMARAM TOWER,19.2464739997,72.8454685573
786,K.E.M.HOSPITAL,19.000552234,72.8427666923
3222,BAFIRA NGR.,19.1978871562,72.8205589102
1860,HINDUSTAN CHK.,19.1775765298,72.9399151306
1831,DUKES CO.(DEONAR),19.0485164071,72.9099710395
4554,MAXUS MALL (BHAYANDER-W),19.295590749,72.8490637852
2991,SHUBHAM PALACE(SECT.7 ),19.0977617818,73.0055712123
4485,MUMBRA RLY.STN.,19.191116977,73.0227004689
2844,DARPAN CINEMA/ SAI SERVICE,19.1131711567,72.8547990166
3102,VASANTRAO NAIK CHK.,18.9690338385,72.8155827967
5107,BUDDHA NGR JUN.,19.0735111758,72.8802133111
1862,POWAI CHK.,19.1734304065,72.934995201
4236,DAHANUKAR WADI,19.2080670595,72.8371018957
4724,RUTU PARK,19.2088491149,72.978483279
3070,CHAKALA,19.1148436739,72.8595541075
4847,P.MOHD.RAFI CHK/BANDRA BUS STN.,19.0524183297,72.8386976211
4114,SARSOLE BUS STN.,19.0406344029,73.014154277
562,PATKAR COLLEGE,19.1669957943,72.8455680295
3436,BORIVLI MARKET,19.229332219,72.8598052973
3152,N.C.P.A.,18.9263649897,72.8204589166
970,MOTILAL NGR.BLOCK NO 8,19.1572991215,72.8412363332
2274,DR.RAVINDRA KULKARNI CHK/SASMIRA,19.0100179603,72.8198702207
454,COM.P.K.KURNE CHK.,19.0060142436,72.8215395549
76,AGARKAR CHK.,19.119822756,72.8487587451
470,PARSI CLY.,19.1015687255,72.8270483657
3730,JOGESHWARI RLY.STN(W),19.1348804932,72.8483916992
1217,GANGABHUWAN,19.1356874101,72.8097847721
468,JUHU HOTEL,19.1042436753,72.8267170306
3127,NOORBAUG,18.9625266916,72.83773681
2086,INDL.EST.,19.1864072573,72.8402178097
3132,VASANTRAO NAIK CHK.,18.9684765716,72.8163390796
1329,KETAKI PADA,19.2543306636,72.8666331302
3826,COM.P.K.KURNE CHK.,19.0063373639,72.8215932802
3144,VIKHROLI STN.RD.(E),19.1103138433,72.9288760091
1371,MAHARASHTRA NGR.,19.2287085072,72.8528621352
4790,DHARAVI POLICE STN.,19.0458079861,72.8594745426
867,SHITAL BAUG,18.9527752769,72.8050943879
3687,VASHI SECT.19,19.0854124968,73.0128477171
3535,GHATI PADA,19.187728007,72.9458299186
1648,MADKEBUWA CHK.,19.0053946911,72.8399194176
1187,SONA INDUSTRIES PREMISES,19.1253683585,72.8526057193
497,GOVERNMENT LAW COLLEGE,18.9345063,72.8268243
1255,MULUND GARDEN,19.1758320746,72.9493825702
5101,VASHINAKA,19.0319177334,72.8967461366
327,GHATKOPAR DEPOT/CASURINA,19.0875432944,72.9186321159
535,SCOUT CAMP/DNYANSAGAR VIDYALAYA,19.1461086859,72.8347222699
4182,SAIBABA NGR.(GOLIBAR),19.0702339754,72.8439821394
3038,DNYANESHWAR NGR.,19.0047887257,72.8540773112
3629,INSTITUTE OF DIST.EDUCT.(V.NGRY),19.0728092901,72.8590365567
4469,MANTRALAYA,18.9293537829,72.8240155258
4707,STATE BANK (KAMANI),19.0835320524,72.882655923
4320,REYAN INTERNATIONAL SCHOOL,19.1719787914,72.8716121559
3131,VASANTRAO NAIK CHK.,18.9695825075,72.8152028422
4908,DR.M.IQBAL CHK/CHINCH BUNDER,18.9558840423,72.8344220065
2966,MUMBAI VETERINARY COLLEGE,18.9972633839,72.8456035374
4540,DR.SHYAMAPRASAD MUKHERJI CHK.,18.9255475726,72.8313612394
4237,DAHANUKAR WADI,19.2087914646,72.8377796006
1668,DHARAVI DEPOT,19.0519210759,72.8594047258
1256,MAHARSHI ARVIND CHK.,19.1756685113,72.9523784102
121,AMBOLI NAKA,19.1273289538,72.847175049
3232,MAHIM,19.0389706805,72.84189229
1510,KAMAL BAUG/14TH BUNGALOWS,19.1618531483,72.7868489074
2306,GATE WAY PLAZA,19.1233815638,72.9127301166
4622,MHADA CLY./NEELGANGA,19.0018116173,72.8251604108
2458,MULUND DEPOT,19.1756902049,72.9469149379
694,PRARTHANA SAMAJ/ HARKISHANDAS HOSP.,18.9576979456,72.8198356711
233,BACKBAY DEPOT,18.9090196526,72.8167825799
1641,AIR INDIA QUARTERS,19.0809758159,72.8695872347
3036,WADALA FLY OVER BRIDGE,19.0188603232,72.8641147831
1216,MACHHALIMAR,19.1329709362,72.8123596927
1746,RESERVE BANK CLY.,19.1705820656,72.8714165422
2889,KANDIVLI STN.(W),19.2031869482,72.8511036787
652,PATHANWADI,19.1802705082,72.8584892425
556,JOGESHWARI TABELA,19.1391675343,72.8444135001
3138,GOL MANDIR,18.9577843901,72.8284809806
4713,RAM GANESH GADKARI CHK,19.0239977642,72.8395090193
2524,AIROLI SECT.NO 10,19.1494533288,72.9875959413
1263,CHAINANI ELDER'S HOME,19.1674974112,72.9624314596
3960,GARIB NGR.,19.2729123508,72.9623170829
2391,SARAF CHOUDHARI NGR.,19.2102721186,72.8684090893
2028,HANUMAN NGR.,19.1404571828,72.9208507268
4255,SAMBHAJI NGR.(DAHISAR-E),19.2399944828,72.8671726865
1354,BANDRA TALKIES,19.0595583115,72.8370062771
3236,KETAKI PADA,19.2541654182,72.8704181915
4972,SANATAN DHARM HIGH SCHOOL,19.0339850919,72.8650524498
5122,CHINCHOLI BUNDER ROAD,19.1793529814,72.8385637007
955,M.I.G.CLY.(KALA NGR.),19.0569014184,72.8476382682
3149,Y.B.CHAVAN PRATISHTHAN/MANTRALAYA,18.9265156664,72.8273771053
311,N.C.P.A.,18.9285860057,72.8215406185
340,ACHARYA MARATHE COLLEGE,19.0589292631,72.9074238159
3309,GHATKOPAR STN.(W),19.0869777885,72.9087384582
4542,SHREEKRISHNA NGR./SHANTIVAN,19.2334421888,72.8640629846
4195,NOORBAUG,18.9615002501,72.8369400023
75,VIJAY NGR.SCTY.,19.1152407744,72.8473639964
4111,CHINCH0LI TALAO (NAVI-MUMBAI),19.0469738648,73.0176159326
3946,RLY.POLICE GROUND(EXTN.RD),19.080754445,72.9152951402
5212,BEVERLY PARK,19.2887880957,72.8649076478
2848,BEVERLY PARK,19.2887880957,72.8649076478
4605,KENI VIDYALAYA,19.151753009,72.9464751951
847,SPRING MILL/HINDMATA CINEMA,19.011075263,72.848478935
4717,ZUNKA BHAKAR KENDRA (MALVANI),19.1915882432,72.8254464658
4372,RAMDEV ASHRAM,19.2019939624,72.8429365323
2240,REAY RD.STN.(ON BRIDGE),18.9761997397,72.8450442086
1090,D'MONTE GARDEN,19.0596295497,72.8255990764
4479,SIEMENS CO.,19.1587806568,73.000052343
1645,SHREE PARLESHWAR SCTY.,19.1044230174,72.8463464575
3058,BABASAHEB WORLIKAR CHK.,19.0127438913,72.8244768471
3266,AHILYABAI HOLKAR CHK.,18.9334047442,72.8272466602
273,ALBERT RD/ TANAJI MALUSARE CHK.,18.9853182743,72.8420605376
8,KHADI BHANDAR,18.9364462942,72.8338694154
2397,ANDHERI MARKET,19.1222866234,72.8457115953
5044,PALI MARKET,19.0627978093,72.8296001628
3466,NAHUR RLY.STN.,19.1570342603,72.947105314
4133,GAVDEVI CHK.(SARSOLE),19.041984198,73.017723221
1694,MOHILI VILLAGE,19.1001977679,72.8914424361
3084,A.H.ANSARI CHK.,18.9690187292,72.833224167
448,LALA LAJPATRAI COLLEGE,18.9860793579,72.8141182105
4953,ANDHERI MARKET,19.1218205451,72.8459028045
3801,PRARTHANA SAMAJ,18.9579193716,72.8195920814
5138,BMC MHATRE BALUDYAN,19.1720217667,72.8495396404
3609,MULUND RLY.STN.(W),19.1727905561,72.95671286
4073,ASHIRVAD SCTY.,19.1138737499,72.8998648262
363,DR.DATTA SAMANT CHK./SAKI NAKA,19.1041391679,72.8867717468
4690,GANDHI NGR.,19.1253365701,72.9232931542
3866,AAKASHGANGA SOC.,19.047673835,72.8603481828
4266,VAZIRA NAKA,19.2302697752,72.844385717
3601,KHARI GAON,19.3070062894,72.8560947573
4444,MAHARASHTRA NGR.(THANE),19.2370826687,72.9695578336
4130,SHAMRAO VITHAL BANK,19.0612818925,73.0044983246
879,TWO TANKS,18.9619175061,72.8280978403
1556,MAYUR CINEMA,19.2017913236,72.8441274331
3919,PANCHAMRUT,19.2585103263,72.9701705909
2039,BANDRA RLY.TERMINUS,19.0628924351,72.8416647109
951,POST OFFICE,19.024395722,72.8539716304
1644,THANAWALA LANE,19.1029023208,72.8452199297
1520,ORLEM POST OFFICE/ S.N.D.T.COLLEGE,19.191354962,72.8420040638
903,MARINE LINES RLY.STN.(KALA NIKETAN),18.9441931305,72.825056619
728,MAHIM MACHHIMAR NGR.,19.0448537078,72.8434870224
3917,ANAND NGR.,19.2671782376,72.966523863
1573,SAMATA NGR.BUS STN.(KANDIVLI-E),19.2068820479,72.8696114535
2399,RAMWADI,19.1402347455,72.8585907436
5204,DOSTI ACRES,19.0244401,72.8670558
3645,INDIAN OIL NGR.,19.1288050178,72.8313238912
257,VIKHROLI DEPOT,19.0990592396,72.9173197822
304,WADALA CHURCH,19.0193273678,72.8561257924
453,GANDHI MAIDAN,19.0026058425,72.81937233
3795,SHANTI ASHRAM,19.242239942,72.8461981181
2164,PRABHU HOTEL(KURAR VILLAGE MRG JUN),19.1793527946,72.8632769174
1432,CHARKOP SECT.NO.5,19.2154927914,72.8265112843
1654,TATA OIL MILL/ HINDUSTAN LEVER LTD.,18.9811507989,72.8590346109
4171,STATE BANK (BHANDUP VILLAGE),19.1474518306,72.9447686514
57,DEEPAK CINEMA,19.005769303,72.8309059099
3593,MAHESHWARI UDN.,19.0273489453,72.8559320428
3068,LOKHANDWALA COMPLEX JN.,19.1419404414,72.8307537025
4549,UMA MAHESHWARI MANDIR,19.0958866721,72.8861387455
281,WADALA STN.(W),19.0161817646,72.857968521
4833,NOVELTY SILK MILL,19.2531060581,72.8647112671
3348,ANDHERI FIRE BRIGADE,19.1140370352,72.8421267233
2993,CHHEDA NGR.,19.0679560648,72.9032403529
4753,O.N.G.C.COLONY(DINDOSHI),19.174676098,72.867833111
2083,NEW ERA TALKIES,19.1838132155,72.8459005165
4317,JIVLA PADA,19.214369016,72.868772952
3554,HIRA MONGI NAVNEET HOSPITAL,19.1709869,72.9503071
928,DHARAVI FLY OVER BRIDGE,19.0483107892,72.856443567
887,BOMBAY DYEING,19.0063373639,72.8287279562
569,ASMITA JYOTI,19.196063352,72.8284767913
4666,CHH. SHIVAJI TERMINUS,18.9390160596,72.8352678438
5104,SCLR DOUBLE DECK.FLY OVER JUN.,19.0665864263,72.8872918407
1155,ESTRELLA BATTERY/SHAHU NGR.,19.0347410759,72.85316617
198,SANDUWADI,19.0532170246,72.8977974476
4782,ST.MARRY SCHOOL,19.25591233,72.8684190857
4699,VEER SAWARKAR NGR.,19.1962003201,72.9448554802
1483,SMALLSCALE INDUSTRIES,19.1595420704,72.8569641511
540,JAIN MANDIR,19.0845703571,72.9115348405
4624,RAM GANESH GADKARI CHK.,19.0236478355,72.839299807
2104,GAWDE NGR.,19.244817991,72.8671425328
1616,DIAMOND MARKET,19.0680276568,72.8666605791
321,AMAR MAHAL,19.066192045,72.8996014875
2878,DATTAPADA PHATAK,19.2256283935,72.8571784474
4805,DATTAGURU CO.OP.HOS.SOCIETY,19.0487842645,72.9203568611
4036,KALAMBOLI VILLAGE,19.0208980977,73.106171415
1588,NANCY CLY.,19.2372502443,72.8633653004
4431,DEEPAK CINEMA,19.005393976,72.8311955885
219,SARDAR NGR.NO 4,19.0351697296,72.8673763492
3430,ANDHERI STN.(W),19.1191886374,72.8458768397
4094,MIRA RD.SEC.NO.10,19.2760243027,72.859925493
1184,CHINAI COLLEGE,19.1222056945,72.8508891055
593,DARYA MAHAL,18.954021258,72.7977522286
1811,MITHAGAR,19.1633056914,72.9548566741
5047,JIJAMATA UDN.,18.9821141251,72.8346024823
1523,MALAD STN-W(SAINATH MARG CHKY),19.1895725907,72.8485972557
5176,BABASAHEB WORLIKAR CHK.,19.0125498692,72.821500661
1774,BANK OF MAHARASTHRA/ODEON CINEMA,19.0820979075,72.9090402288
544,PAREL VILLAGE/ST.GORA KUMBHAR CHK.,19.0003694857,72.8466151523
4474,MADINA MANZIL,19.1739667961,72.8497774892
150,GANDHI MARKET,19.0300978264,72.8579899787
3660,BHAVANS COLLEGE,19.1249140003,72.8381195234
2172,BARKAT ALI DARGAH,19.0180766532,72.8655118177
3001,M.S.E.B.OFFICE,19.1025470087,73.0038545985
4711,JACKERIA BUNDER,18.9911659514,72.84762297
5184,KOPAR KHAIRANE RLY STN,19.0759837,72.8776559
3873,PETROLEUM HOUSE,18.9292637786,72.825036763
3110,LOKMANYA TILAK HOSPITAL,19.0367924685,72.860584996
2873,THAKUR CINEMA,19.2100530792,72.8730108423
3965,PALI HILL NAKA,19.0595484243,72.830405595
3212,ANTOP HILL EXTN.,19.0256927539,72.8701629511
3779,HARI OM NGR.MAIN GATE,19.1766988801,72.9680417958
449,NEHRU PLANETARIUM,18.9888845822,72.8139196724
4336,SAIBABA MANDIR(AMRUT NGR.),19.0978223343,72.9076790608
4721,VISHWA PRAGATI MANDAL SPORTS COMPLE,19.257883377,72.8524767388
4913,ICICI BANK,19.0651090216,72.8624427274
5178,SAIFEE HOSPITAL,18.9518984107,72.8186337563
2476,TUNGA VILLAGE,19.1203997785,72.8910134656
4235,PUSHP HERITAGE,19.2101642795,72.8376382869
4656,GANDHI NGR./CHETANA COLLEGE,19.060903281,72.8524045608
3055,FLORA HOTEL/WATUMAL ENGG.COLLEGE,19.0026185193,72.8142347632
4019,R.B.I.CLY.(C.B.D.BELAPUR),19.0238253316,73.0523974282
235,CUFFE PARADE MACCHIMARNGR.,18.9200838735,72.8260617505
4222,AMRAPALI SCTY.,19.1813749821,72.814533311
3573,TOLANI NAKA,19.1297516454,72.865685869
4898,KOKANI PADA,19.240162091,72.9740210294
4911,GAIWADI,18.9543967072,72.8204640496
3072,OMKARESHWAR MANDIR,19.2313371611,72.863350405
3090,SHREE RAM MILL,18.9959609084,72.8226816612
2027,KANJUR MARG STN.(W),19.1289426028,72.9275240628
323,GARODIA NGR./ R.T.O.,19.0674894849,72.902472818
4746,U.T.I.TRANING CENTRE,19.0659417108,72.8595395218
217,GURU TEG BAHADUR NGR STN,19.037382,72.864969
3540,COLABA BUS STN./POST OFFICE,18.9116703775,72.8214156199
4331,S.V.P.UDN.,19.2007113807,72.8460121434
4003,ICICI BANK/SINHGAD COLLEGE,19.1144008913,72.8968392944
1290,KANDIVLI TELEPHONE EXCHANGE,19.2112017189,72.8517036271
4144,RAILWAY SANKALP CLY.,19.0554627806,72.9329427124
2106,NIRMAL BLDG.,18.9256225709,72.8235147244
335,MANDVI POST OFFICE,18.9572417583,72.8320962763
4806,KONKAN RAILVIHAR,19.0222066048,73.0164132623
2874,THAKUR COLLEGE,19.2068413813,72.8727318925
585,WAREHOUSE,19.1010498219,72.8642492561
1601,ABHINAV NGR.,19.2322087072,72.8690145779
4866,KALA MARUTI MANDIR,19.2054728276,72.8444182828
655,BANDONGRI,19.197738003,72.8600665024
4640,RUTU TOWER,19.2200297476,72.9632232475
254,SHREYAS CINEMA,19.093237015,72.9125531407
3503,MUNICIPAL CLY.SECT.-B,19.1731543061,72.8756032829
4117,TERNA ENGG. COLLEGE(NERUL),19.0295997209,73.0169437744
3910,CHENA BRIDGE,19.2745327525,72.915324781
1398,S.N.D.T.,19.0852774242,72.8306353384
3404,SANTACRUZ STN.RD.,19.0791444982,72.8377382955
1462,BANGUR NGR POLICE CHKY/POST OFFICE,19.1630761537,72.8347223061
4465,SHETH D.M.VIDYALAYA,19.2372307597,72.8621437408
3446,HEMA PARK,19.1486627838,72.9429425256
239,KURLA POST OFFICE,19.068988619,72.8752409136
5055,GATE WAY PLAZA,19.1237395262,72.9135841804
135,JUHU TARA,19.0900311589,72.8274989768
485,MUMBAI CENTRAL STN.,18.9688476504,72.8197714356
1092,ADDL.C.P.OFFICE,19.0624283518,72.8224447986
4301,DADLANI PARK (THANE-W),19.2132337409,72.9939398978
2654,WADALA GATE NO 4/SIWS SCHOOL,19.0208864891,72.8601642411
2788,BELA NIVAS,19.114663713,72.8608025501
3205,BORIVLI STN(E),19.2304060614,72.8577533828
487,AGRIPADA POLICE STN.,18.9784013713,72.8244241144
2374,MAHIM BUS STN.,19.0431499142,72.8403756599
3041,RUIA COLLEGE,19.0218122811,72.8512788099
5209,MUNICIPAL COMMISSIONER BUNGALOWS,19.0759837,72.8776559
410,MANGATRAM PETROLPUMP,19.1392408919,72.930914375
1966,B.A.P.MARKET,19.0737478536,73.0101160933
4734,YASHODHAN NAGAR,19.2093027607,72.9517652643
972,VINAY INDUSTRY(SUBKUCH MARKET),19.1745478172,72.8370397347
715,SHREE RAM MILL,18.9983528478,72.8228231965
1331,ANAND NGR.MARKET,19.2554312579,72.8645119351
3580,GHATKOPAR STN.(E),19.0850332084,72.907784955
1246,MAHARASHTRA WEIGHT BRIDGE,19.0503264051,72.8651133876
2575,AIROLI SECT.NO.5/ SAHAKAR BAZAR,19.1499819752,72.9995979321
3889,KORA KENDRA,19.2209677594,72.8527369548
616,R.T.O./NEW VIKAS HSG SOC,19.1302178718,72.825672687
1759,CHEMBUR STN.RD.NO 1,19.0636444621,72.9018048834
1438,GOKHALE HIGH SCHOOL,19.2235468905,72.8521073071
1812,MHADA OFFICE (MULUND-E),19.1664970132,72.9640017267
811,MAITRI PARK,19.049406394,72.9053017293
3947,KAPILVASTU BUDDHA VIHAR,19.0741327375,72.8605867072
3862,ASMITA JYOTI,19.1972618987,72.8277086084
3797,GANPAT PATIL NGR.,19.2525716611,72.846927679
83,P.THAKRE CHK.,19.0215459211,72.8373861789
1930,SARVODAYA NGR.,19.1344269788,72.8647026625
3846,SHIVAI VIDYALAYA,19.1471680423,72.9464852651
2014,TEMBIPADA,19.1571938703,72.9294282849
2861,NANA CHK.,18.9621082803,72.8135378341
146,NEW NAGPADA,18.9688832693,72.8330791588
2721,RASHMI-RATHI SCTY.,19.2152496447,72.835695168
1039,THANE BELAPUR JN.,19.0672831295,73.0187614141
147,RUIA COLLEGE,19.0218525295,72.8508539417
1921,ASHIRVAD SCTY.,19.1142184195,72.8995000458
3160,A.H.ANSARI CHK./ NEW NAGPADA,18.967139193,72.8326984131
4816,SARVODAY HOSPITAL,19.0895920349,72.9077356716
286,DHARAVI DEPOT,19.0506951083,72.858710427
523,PODDAR HOSPITAL/SIDDHARTH NGR.,19.0035128932,72.8161598559
4268,JAWAHWR NGR.,19.160035464,72.8459698819
4467,DAULAT NGR.(MARG NO.4),19.2353668724,72.8587534286
3046,MAROLNAKA/MATA RAMABAI AMBEDKAR CHK,19.108376776,72.8787251197
3725,VASANT GARDEN,19.1803101979,72.9395788115
3139,ALANKAR CINEMA,18.9580819447,72.8269468518
3059,JUHU HOTEL,19.1048924324,72.8265713445
1729,NEW ZEALAND HOSTEL,19.1497460863,72.8739907303
1676,RAWLICAMP,19.0375507968,72.8691147608
1518,MARVE RD NAKA/ SWAMI SHIVANAND CHK.,19.1917602652,72.8456518681
2712,BAHAR CINEMA,19.1095187118,72.8538690721
1418,RUSHI COMPLEX,19.2512161633,72.8509629624
149,MAHESHWARI UDN.,19.0268913676,72.855319674
4357,SHINDEWADI,19.0107028727,72.8427454782
2332,ADISHAKTI NGR. (PIPE LINE ),19.1857618075,72.9470675391
3435,SATPUDA SCTY.,19.1709658855,72.8813390513
1872,VIKHROLI BUS STN.- E,19.1104133725,72.9286161084
9,CHH. SHIVAJI TERMINUS,18.9409747781,72.8345966953
3009,KHODADAD CIRCLE (PRITAM HOTEL),19.0167494583,72.8458791759
3781,Y.B.CHAVAN PRATISHTHAN,18.9263127631,72.8269653829
1417,HOLY CROSS RD.,19.2475292018,72.8498900788
214,AMULAKH HIGH SCHOOL,19.0206853407,72.860779476
5072,HOLY NAME SCHOOL,18.9159731255,72.825593892
5151,BLDG NO.5-N.G.PARK,19.2404224512,72.8697990929
177,NAVJEEVAN SCTY.,19.0479372475,72.8933446916
2123,PRAGATI HIGH SCHOOL,19.2283080273,72.8220159083
1935,BAMANDAYA PADA,19.1223607764,72.8864018252
682,THAKURDWAR,18.950824893,72.8232106316
1203,JAIBHIM NGR.,19.1337670123,72.896741572
428,KALIDAS NATYAGRUH,19.1733291181,72.9496733926
1148,SONAWALA BUILDING,18.9663146347,72.816548392
1619,KOKAN NGR.,19.1451549747,72.9284291534
3121,PAREL S.T.DEPOT/SANT ROHIDAS CHK.,19.0110226958,72.8318395005
110,ST.TERESA CONVENT SCHOOL,19.075500175,72.8375026265
2823,MUN.WARD OFFICE/AMBEDKAR GARDEN,19.0605731489,72.8987441037
1304,DAHISAR STN.(W),19.2497322726,72.8587656277
1450,VESAVA VILLAGE,19.1369239991,72.808025243
131,AHILYABAI HOLKAR CHK.,18.9325696437,72.828140217
1293,BORIVLI TEL.EXCH.,19.233528163,72.8550371186
280,KIDWAI NGR.,19.0095838443,72.8542592242
1553,SANTOSH NGR.(KANDIVALI-W),19.2045013313,72.8431165344
3999,MORE MALL,19.2126928873,72.8403372908
1519,CHOKSI HOSPITAL,19.1923276879,72.8438065083
1167,MAROL PIPE LINES,19.1110547937,72.8714455554
5133,STATE BANK,19.1180259424,72.8688080763
3209,OMKARESHWAR MANDIR,19.2304060221,72.862380218
1712,AZAD NGR.,19.0918966899,72.8438282653
942,MATUNGA STN.(E),19.0281181035,72.8514439294
4478,SHITAL GARDEN,19.2854795876,72.8614837112
5089,GANESH BABAJI DHOND CHK,19.1353538568,72.8573995628
3477,UMA MAHESHWARI MANDIR,19.0936226098,72.8845629393
552,SANTACRUZ POLICE STN,19.0845256921,72.8347194835
3970,SHAHAJIRAJE SPORT COMPLEX,19.1271257745,72.8371330745
3768,MUNICIPAL GARDEN,19.0712267022,72.8947763986
2875,SAMATA NGR.(KANDIVLI-E),19.206602332,72.8673231825
4852,WESTERN HOTEL/LAXMI BAUG,19.2796284745,72.8915147577
1381,ASALPHA VILLAGE,19.0971157294,72.8938886107
4552,NANA CHK..,18.9619665076,72.8138539585
3603,BANK OF INDIA(BKC),19.0610257466,72.8635275871
4996,DON BOSCO SCHOOL,19.231409173,72.837271545
4973,MUNICIPAL COLONY,19.0344719188,72.8627350212
406,HUMA TALKIES,19.1323495408,72.9273582945
642,MAHANANDA DAIRY,19.1503821182,72.8565532935
992,MIRA RD.STN.(E),19.2822563217,72.85811987
4323,KOHINOOR HOSPITAL,19.0824778337,72.8857043298
403,SIDDHIVINAYAK MANDIR,19.0169232505,72.8298851213
858,RAILWAY HOTEL / CHARNI RD.JUN.,18.9587938061,72.8196210944
3689,PARADIGM -B,19.184218977,72.8325236578
1982,NERUL RLY. STN.,19.0338595196,73.0172012664
2622,JALVAYU VIHAR,19.1127984387,72.9104985187
459,KHAR TEL.EXCHANGE,19.0643171341,72.8347731276
436,SANTOSHI MATA MANDIR,19.1819439842,72.9470444422
536,ANAND NGR.,19.1504443525,72.8359054391
73,GARWARE CHK./ KOLDONGRI NO.2,19.1100458671,72.8517662203
4586,WAGHBILGAON,19.2659989146,72.9825269196
1214,SEVEN BUNGALOWS GARDEN,19.128470411,72.8170160076
3303,MINI NGR.,19.2433259769,72.86715455
4464,JOY ASHISH,19.2395200705,72.8605344154
4697,GLAXO CO.,19.2209212578,72.9630945015
4315,GORAI DEPOT,19.2326927173,72.8301751881
1025,B.M.C.COMPOST PLANT,19.057373859,72.9271043435
2118,CHARATSINGH CLY.,19.11082939,72.8614135795
2578,JAMMU & KASHMIR BANK,19.2851740324,72.8682492914
71,MATRUCHAYA,19.1036230575,72.8502393245
2591,AMBAJI DHAM,19.1782498826,72.9495122912
2241,GANESH NGR.,19.0177718895,72.8691411744
541,P.THAKRE UDN.BUS STN.,18.9978536825,72.8524730968
1646,BHUTTA COLLEGE,19.108687425,72.8486226713
2449,MAHIM KOLIWADA,19.0461851322,72.8383994742
3992,PALI HILL NAKA,19.0594875068,72.8292996203
245,MUKUND CO./ P.W.D.OFFICE,19.0850934835,72.8873336955
589,J.MEHTA MARG,18.9501044262,72.7954991731
4980,PT.PALUSKAR CHK.,18.9567248819,72.815508537
5109,DAHISAR STN.(E),19.255606876,72.8595306407
3753,POISAR DEPOT,19.2132171867,72.8504814062
3851,CHAKALA (SATAMWADI),19.1118430082,72.858803089
4538,MUNICIPAL GARAGE(WORLI),18.9957502658,72.8186999602
3886,KORA KENDRA(ON BRIDGE),19.2209545221,72.8536307938
4377,ATUL TOWER,19.2020995034,72.8397584146
3223,MALAD STN-W(KASTURBA CHKY),19.1886260745,72.8470591353
4310,BRAHMAND AZAD NGR.BUS STN,19.2533834366,72.9727304947
3564,KAMRAJ NGR.,19.2090087565,72.8350085225
3088,BHARATMATA CINEMA/MAHADEV PALAV MG,18.9952750285,72.8351580397
4539,AMRUT ANGAN,19.204901197,73.0188228513
3423,SUYASH SHOPPING CENTRE,19.1734182579,72.8772835513
3140,TWO TANKS,18.9617464088,72.8258047345
300,G.D.SOMANI SCHOOL,18.9154328979,72.8202705892
4327,SUMAN APT.,19.1980593043,72.8442396699
528,NEW D.N.NGR.,19.1199317057,72.8297980284
2029,EKTA NGR.,19.1406193543,72.9266442982
4620,AHILYABAI HOLKAR CHK (E),18.9332960354,72.8278850965
1241,NAVA GAON,19.2508667158,72.8538303632
4903,MICHAEL WADI,19.2555335506,72.8528200616
3017,MAHARSHI ARVIND CHK.,19.1758509153,72.9516273917
3344,BMC WARD OFFICE,19.0280529474,72.8551356965
4618,KUMBHAR TUKDA,18.9533126261,72.8259435523
4103,SHILP CHK.,19.0473145354,73.069821058
2862,BHARAT NGR.,19.1251050732,72.8227666637
389,MANSUKH DYEING CO.,19.1262016157,72.9327930467
491,RALLI WOLF,19.1714654448,72.9407538431
4794,GURU TEG BAHADUR NGR STN.,19.037451165,72.8633583813
1630,INDIRA NGR./KHALAI VILLAGE,19.0817883615,72.8934290918
5121,R.R.EDUCATION VIDYALAYA,19.1651050042,72.9638930082
3318,RAJAN PADA,19.1843576868,72.8357963187
1799,CHEMBUR LEVEL CROSSING/SHELL BRIDG,19.0630385681,72.8987826364
3015,AMBAJI DHAM,19.1785457941,72.9491734264
4557,INDIRA NGR.,18.9917829041,72.8550005685
981,SAHYADRI GUEST HOUSE,18.9527354233,72.8026080771
3630,GARWARE INSTITUTE (VIDYA NGRY),19.0727484509,72.8570409932
4165,SARVODAY HOSP/GHATKOPAR POST OFFICE,19.0854648342,72.9054260251
4741,WADALA STN/P & T QTRS.,19.015422215,72.8571369852
3262,AHILYABAI HOLKAR CHK.,18.9333194533,72.8277272066
1722,UNIT NO 7(AAREY CLY.),19.1538551544,72.875293225
4870,A.H.ANSARI CHK.,18.9737365722,72.8322906206
1983,MAFCO MARKET,19.0706090833,73.0094058691
1270,MAROSHI NAKA / PICNIC POINT,19.135525174,72.8823662101
3365,RAWLICAMP,19.0381786687,72.8687160807
3710,UNIT NO.32,19.1644964536,72.8693709075
415,USHA NGR.,19.1523724256,72.9396749983
684,NAWAB TANK MARG,18.9655398149,72.8453927241
672,INSPECTOR KAKLIS CHK.,18.9635154452,72.8440105873
98,ST.MARY'S HIGH SCHOOL,18.9694839928,72.8361896629
1934,DATTA MANDIR(INCOME TAX CLY.),19.1307171279,72.8628680315
4669,SEEPZ VILLAGE/REL.ENGY. TR.CENTRE,19.1293579726,72.8836740151
693,KHETWADI,18.9582549199,72.8238322384
886,GOPAL NGR.,19.0063460144,72.8232989577
1064,RANI LAXMIBAI CHK.,19.0453412957,72.8637814104
1031,APNA BAZAR,19.0707905256,72.9975664395
4442,SAHYADRI SCHOOL,19.1992425132,72.9962386514
1701,NATRAJ STUDIO,19.1173821775,72.8534450749
211,WADALA STN./P.& T.QTRS.,19.0155245176,72.8571218749
4221,KALA VIDYALAYA,19.1814763141,72.8132029354
2365,MANTRALAYA,18.9265431953,72.8274352406
4995,VAZIRA NAKA,19.2297883452,72.8434513546
518,SOUTH-NORTH MARG NO 9,19.107078083,72.8307417102
3547,UNITY HOUSE,19.2455876928,72.8486017243
3785,SARDAR VALLABHBHAI PATEL COLLEGE,19.2492493753,72.845747507
4657,GANDHI NGR./CHETANA COLLEGE,19.0591230165,72.8476518188
1596,GORAI CREEK,19.2327855654,72.8266293078
4868,ELECTRIC HOUSE,18.9187155059,72.8288910502
4437,VASANT-VIHAR TEL.EXCHANGE,19.2210363236,72.9699011564
4097,GUNDECHA PROJECT,19.1140768158,72.9037099151
3440,BIMBISAR NGR.,19.1492653184,72.8561273019
5180,T.B.HOSPITAL,19.0050319463,72.8514010141
2938,KHAR 14TH RD,19.0722237873,72.833152177
2645,KOPAR KHAIRANE,19.0997526295,73.0047212929
324,PANT NGR.,19.0850570355,72.9139810151
2539,BABULNATH TEMPLE,18.9572204217,72.8086162253
3654,K.C.COLLEGE,18.9294312307,72.8281406151
1545,TRACTOR GATE NO 3/VASA HOSPITAL,19.2006387907,72.8721283245
1907,ODEON CINEMA,19.0817633103,72.9117492599
1225,MALAD STN RD.-W,19.1849743817,72.8466128674
204,K.E.M.HOSPITAL,19.0017326072,72.8410046737
1368,DON BOSCO SCHOOL,19.230107692,72.8415533043
4933,M.S.E.TRANSMISSION CO.,19.228313542,72.8676514316
1507,MALATI COTTAGE,19.1696361885,72.7946595
4328,PARAS NGR.,19.1979782468,72.8426518022
2936,GAUTAM NGR.,19.1192135972,72.8702288466
2131,AMBEWADI,18.9907327412,72.8414831383
1291,BORIVLI JAIL(W),19.2236277824,72.853841092
2940,PETIT GIRL'S SCHOOL,19.0706111914,72.8257946434
3425,SHIVSHAHI PRAKALP/MANTRI PARK,19.0759837,72.8776559
3356,SARDAR NGR.NO 2,19.0370951761,72.867218394
5191,MULUND RLY.STN.(W),19.1732966198,72.9566406963
3721,WOOD HOUSE,18.9218505694,72.8280457576
1788,DADOJI KONDEV NGR.(KHARDEV NAGAR),19.05755012,72.9091404297
486,NAIR HOSPITAL,18.974424237,72.8232010271
5213,LOTUS HOSPITAL,19.2406112,72.8452939
1404,OSHIWARA POLICE STN.,19.1480825186,72.8313974326
4295,SUKUR PARK/SAHYADRI SCTY.,19.197864541,72.9934062387
3023,COM.GULABRAO GANACHARYA CHK.,18.9865286003,72.8317213534
3527,SANT GADGE MAHARAJ CHK.,18.9807957227,72.8275354769
2952,KAVERI MAHIMA SOC.(GOREGAON-W),19.1841476917,72.8307751748
3662,"DNYANSADHANA COLLEGE,KOPARI",19.182735,72.965406
4263,PINKY CINEMA,19.1232979901,72.8512619286
388,TAGORE NGR.JN.,19.1249091717,72.9328594422
5070,SHARDASHRAM VIDYAMANDIR,19.0173860149,72.838552112
1628,VIDYA VIHAR BUS STN(W),19.081646411,72.8962829622
1351,JOHN BAPTIST RD.,19.0477133973,72.8258086359
4645,KAMGAR NGR.,19.0590473076,72.8857459752
5043,SWAMI D.SARASWATI CHK.,18.9342226295,72.8370315034
3076,SHANTARAM PUJARE CHK.,18.9882505109,72.8365055539
1563,SAIBABA NGR.,19.2171193613,72.8449035477
4113,SWATANTRYAVEER SAWARKAR CHK.,19.0404315661,73.0175016739
2447,SAINATH NGR.,19.1209453169,72.8756817795
2015,MINILAND SCTY.,19.1470233928,72.933151191
1066,CENTRAL LABOUR INSTITUTE,19.0496701752,72.8662973536
3297,NEW LINK RD.JN.,19.2127120006,72.8368191663
3517,PATTHAR NGR.,19.0629634925,72.8559446594
4470,MANTRALAYA,18.9293131884,72.82360783
1106,TEEN BAKDA,18.9538711698,72.8070255784
4900,TIKUJINI WADI,19.239837944,72.980200839
2688,GOL MANDIR,18.9580717978,72.828078744
498,GYMKHANA,18.9452390989,72.8220362179
4725,RUTU PARK,19.2089539858,72.9789123825
1856,KALA NGR.,19.0534226424,72.8453496346
159,CHUNABHATTI PHATAK,19.0532195859,72.8693872584
3330,PODDAR HOSPITAL/SIDDHARTH NGR.,19.0003834221,72.8164356391
375,NITIE,19.1350386442,72.8979659378
4665,G.P.O.,18.9383171179,72.8375750845
3941,FIRE BRIGADE JUN.(ANTOP HILL),19.0259806714,72.8676059466
4388,PREM NGR.,19.1828599288,72.9736752798
5066,SUSHRUSHA HOSPITAL,19.0201581436,72.836648467
379,RAMABAI NGR.,19.0801547885,72.9176653879
4691,AMBIKA NGR.,19.19481219,72.9498147059
4570,LALJIPADA POLICE CHKY,19.2032567621,72.833499395
4057,DNYANODAY VIDYALAYA,19.1946621221,72.9451594672
4949,MAHINDRA CO.GATE(B.H.A.D.CLY),19.2029773297,72.8627442638
913,SARASWATI VIDYA MANDIR,19.0351102503,72.8476906463
3414,BEST OFFICER QUARTERS,19.222959134,72.8375298052
1471,DOMESTIC AIRPORT TERMINAL 1-A,19.093356656,72.8532481833
4440,MAJIWADA,19.2138935009,72.9773803688
4521,CHARKOP SEC.NO.9/AKSHARA VIDYALAYA,19.21837,72.8183573689
2805,KHINDIPADA,19.1651770358,72.9287764337
4296,KHARIGAON NAKA,19.2018616417,73.0010344411
1578,BORIVLI STN(E),19.229362649,72.8575924502
678,MUSAFIR KHANA,18.9485842973,72.8360940473
4510,MEGA MART,19.0901375752,73.0052064318
3106,VASANTRAO NAIK CHK.,18.968662869,72.815109251
4536,OLD AGRA RD.,19.0781222869,72.8790870134
2809,KOKANI PADA,19.1832842739,72.8639259823
3002,BIMBISAR NGR.,19.1465712725,72.8563816321
